[{"type":"museo","name":"Collezione delle Cere Anatomiche \"Luigi Cattaneo","address":"Via Irnerio, 48 - 40126 Bologna","city":"Bologna","lat":44.49901,"lon":11.354981,"url":"https://sma.unibo.it/it/il-sistema-museale/collezione-delle-cere-anatomiche-l-cattaneo/collezione-delle-cere-anatomiche-l-cattaneo","notes":""},{"type":"museo","name":"Collezione di Anatomia Comparata","address":"Via Selmi, 3 - 40126 Bologna","city":"Bologna","lat":44.496113,"lon":11.354331,"url":"https://sma.unibo.it/it/il-sistema-museale/collezione-di-anatomia-comparata/collezione-di-anatomia-comparata","notes":""},{"type":"museo","name":"Collezione di Anatomia degli Animali Domestici","address":"Via Tolara di Sopra, 50 - 40064 Ozzano Emilia (BO)","city":"Ozzano Emilia","lat":44.435253,"lon":11.485364,"url":"https://sma.unibo.it/it/il-sistema-museale/collezione-di-anatomia-degli-animali-domestici/collezione-di-anatomia-degli-animali-domestici","notes":""},{"type":"museo","name":"Collezione di Anatomia Patologica e Teratologia Veterinaria \"Alessandrini - Ercolani","address":"Via Tolara di Sopra, 50 - 40064 Ozzano dell'Emilia (BO)","city":"Ozzano dell'Emilia","lat":44.4352,"lon":11.485334,"url":"https://sma.unibo.it/it/il-sistema-museale/collezione-di-anatomia-patologica-e-teratologia-veterinaria/collezione-di-anatomia-patologica-e-teratologia-veterinaria","notes":""},{"type":"museo","name":"Collezione di Antropologia","address":"Via Selmi, 3 - 40126 Bologna","city":"Bologna","lat":44.496113,"lon":11.35434,"url":"https://sma.unibo.it/it/il-sistema-museale/collezione-di-antropologia/collezione-di-antropologia","notes":""},{"type":"museo","name":"Collezione di Chimica \"Giacomo Ciamician","address":"Via Selmi, 2 - 40126 Bologna","city":"Bologna","lat":44.49625,"lon":11.3540325,"url":"https://sma.unibo.it/it/il-sistema-museale/collezione-di-chimica-giacomo-ciamician/collezione-di-chimica-giacomo-ciamician","notes":""},{"type":"museo","name":"Collezione di Fisica","address":"Via Irnerio, 46 - 40126 Bologna","city":"Bologna","lat":44.49941,"lon":11.353818,"url":"https://sma.unibo.it/it/il-sistema-museale/collezione-di-fisica/collezione-di-fisica","notes":""},{"type":"museo","name":"Collezione di Geologia \"Museo Giovanni Capellini","address":"Via Zamboni, 63 - 40126 Bologna","city":"Bologna","lat":44.497814,"lon":11.355261,"url":"https://sma.unibo.it/it/il-sistema-museale/collezione-di-geologia-giovanni-capellini/collezione-di-geologia-giovanni-capellini","notes":""},{"type":"museo","name":"Collezione di Mineralogia \"Museo Luigi Bombicci","address":"Piazza di Porta San Donato, 1 -\n40127 Bologna","city":"Bologna","lat":44.498222,"lon":11.355502,"url":"https://sma.unibo.it/it/il-sistema-museale/collezione-di-mineralogia-luigi-bombicci/collezione-di-mineralogia-luigi-bombicci","notes":""},{"type":"museo","name":"Collezione di Zoologia","address":"Via Selmi, 3 - 40126 Bologna","city":"Bologna","lat":44.49612,"lon":11.354331,"url":"https://sma.unibo.it/it/il-sistema-museale/collezione-di-zoologia/collezione-di-zoologia","notes":""},{"type":"museo","name":"Museo della Specola","address":"Via Zamboni, 33 - 40126 Bologna","city":"Bologna","lat":44.49672,"lon":11.352471,"url":"https://sma.unibo.it/it/il-sistema-museale/museo-della-specola/museo-della-specola","notes":""},{"type":"museo","name":"Museo di Palazzo Poggi","address":"Via Zamboni, 33 – 40126 Bologna","city":"Bologna","lat":44.496986,"lon":11.352611,"url":"https://sma.unibo.it/it/il-sistema-museale/museo-di-palazzo-poggi/museo-di-palazzo-poggi","notes":""},{"type":"museo","name":"Museo Europeo degli Studenti - MEUS","address":"Via Zamboni, 33 - 40126 Bologna","city":"Bologna","lat":44.496872,"lon":11.352449,"url":"https://sma.unibo.it/it/il-sistema-museale/museo-europeo-degli-studenti-meus/museo-europeo-degli-studenti-meus","notes":""},{"type":"museo","name":"Orto Botanico ed Erbario","address":"Via Irnerio, 42 - 40126 Bologna","city":"Bologna","lat":44.49957,"lon":11.352603,"url":"https://sma.unibo.it/it/il-sistema-museale/orto-botanico-ed-erbario/orto-botanico-ed-erbario","notes":""},{"type":"biblioteca","name":"Biblioteca Universitaria di Bologna","address":"Via Zamboni, 33-35, 40126 Bologna (BO)","city":"Bologna","lat":44.497112,"lon":11.352852,"url":"https://acnpsearch.unibo.it/library/BO001","notes":""},{"type":"biblioteca","name":"Biblioteca Giuseppe Dossetti - Fondazione per le Scienze Religiose Giovanni XXIII","address":"Via San Vitale, 114, 40125 Bologna (BO)","city":"Bologna","lat":44.49422,"lon":11.35182,"url":"https://acnpsearch.unibo.it/library/BO005","notes":""},{"type":"biblioteca","name":"Biblioteca. Ospedale Bellaria C. A. Pizzardi","address":"v. Altura,3, 40139 Bologna (BO)","city":"Bologna","lat":44.464767,"lon":11.394803,"url":"https://acnpsearch.unibo.it/library/BO026","notes":""},{"type":"biblioteca","name":"Biblioteca di Veterinaria \"G.B. Ercolani\". Fondo di Patologia generale ed Anatomia patologica veterinaria","address":"Via Tolara di Sopra, 50, 40064 Ozzano dell'Emilia (BO)","city":"Ozzano dell'Emilia","lat":44.418888,"lon":11.475358,"url":"https://acnpsearch.unibo.it/library/BO558","notes":"Collezione momentaneamente inaccessibile in ottemperanza al DPCM 11 marzo 2020 sul Coronavirus"},{"type":"biblioteca","name":"Biblioteca di Veterinaria \"G.B. Ercolani\". Fondo di Chirurgia","address":"Via Tolara di Sopra, 50, 40064 Ozzano dell'Emilia (BO)","city":"Ozzano dell'Emilia","lat":44.418888,"lon":11.475358,"url":"https://acnpsearch.unibo.it/library/BO559","notes":"Collezione momentaneamente inaccessibile in ottemperanza al DPCM 11 marzo 2020 sul Coronavirus"},{"type":"biblioteca","name":"Biblioteca di Veterinaria \"G.B. Ercolani\". Fondo di Patologia speciale e Clinica medica veterinaria","address":"Via Tolara di Sopra, 50, 40064 Ozzano dell'Emilia (BO)","city":"Ozzano dell'Emilia","lat":44.418888,"lon":11.475358,"url":"https://acnpsearch.unibo.it/library/BO560","notes":"Collezione momentaneamente inaccessibile in ottemperanza al DPCM 11 marzo 2020 sul Coronavirus"},{"type":"biblioteca","name":"Biblioteca di Veterinaria \"G.B. Ercolani\". Fondo di Zootecnia e Nutrizione animale","address":"Via Tolara di Sopra, 50, 40064 Ozzano dell'Emilia (BO)","city":"Ozzano dell'Emilia","lat":44.439217,"lon":11.491358,"url":"https://acnpsearch.unibo.it/library/BO561","notes":"Collezione momentaneamente inaccessibile in ottemperanza al DPCM 11 marzo 2020 sul Coronavirus"},{"type":"biblioteca","name":"Biblioteca di Veterinaria \"G.B. Ercolani","address":"Via Tolara di Sopra n.50, 40064 Ozzano dell'Emilia (BO)","city":"Ozzano dell'Emilia","lat":44.418888,"lon":11.475358,"url":"https://acnpsearch.unibo.it/library/BO563","notes":""},{"type":"biblioteca","name":"Biblioteca di Ingegneria e Architettura. Sezione di Ingegneria \"Gian Paolo Dore","address":"Viale del Risorgimento, 2, 40136 Bologna (BO)","city":"Bologna","lat":44.488194,"lon":11.328335,"url":"https://acnpsearch.unibo.it/library/BO601","notes":""},{"type":"biblioteca","name":"Biblioteca. Centro Ceramico.","address":"Via Martelli, 26/A, 40138 Bologna (BO)","city":"Bologna","lat":44.491814,"lon":11.399807,"url":"https://acnpsearch.unibo.it/library/BO602","notes":""},{"type":"biblioteca","name":"Biblioteca di Ingegneria e Architettura. Sezione di Architettura \"Giovanni Michelucci","address":"Viale Risorgimento 2, 40136 Bologna (BO)","city":"Bologna","lat":44.488194,"lon":11.328335,"url":"https://acnpsearch.unibo.it/library/BO605","notes":""},{"type":"biblioteca","name":"Biblioteca di Ingegneria e Architettura. Sezione di Ingegneria chimica, ambientale e gestionale \"Franco P. Foraboschi","address":"Via Terracini 28, 40131 Bologna (BO)","city":"Bologna","lat":44.51583,"lon":11.320733,"url":"https://acnpsearch.unibo.it/library/BO616","notes":""},{"type":"biblioteca","name":"Biblioteca di Ingegneria e Architettura. Sezione di Ingegneria civile \"Giovanni Michelucci","address":"V.le Risorgimento, 2, 40136 Bologna (BO)","city":"Bologna","lat":44.488194,"lon":11.328335,"url":"https://acnpsearch.unibo.it/library/BO627","notes":""},{"type":"biblioteca","name":"Biblioteca Centralizzata dell'Azienda Ospedaliera-Universitaria di Bologna Policlinico S.Orsola-Malpighi","address":"Via Albertoni,15, 40138 Bologna (BO)","city":"Bologna","lat":44.490036,"lon":11.3636,"url":"https://acnpsearch.unibo.it/library/BO027","notes":"Il materiale con collocazione \"Deposito\" non è al momento disponibile."},{"type":"biblioteca","name":"Biblioteca di Chimica. Sezione di Chimica industriale","address":"Viale Risorgimento, 4, 40136 Bologna (BO)","city":"Bologna","lat":44.48802,"lon":11.3281,"url":"https://acnpsearch.unibo.it/library/BO651","notes":""},{"type":"biblioteca","name":"Biblioteca dell'Istituto di Studi Superiori dell'Università di Bologna - I.S.S.","address":"Via Miliani, 7/3, 40132 Bologna (BO)","city":"Bologna","lat":44.5134,"lon":11.328795,"url":"https://acnpsearch.unibo.it/library/BO665","notes":""},{"type":"biblioteca","name":"Fondazione Federico Zeri. Università di Bologna","address":"Piazzetta Giorgio Morandi, 2, 40125 Bologna (BO)","city":"Bologna","lat":44.488914,"lon":11.354859,"url":"https://acnpsearch.unibo.it/library/BO666","notes":"In seguito alle disposizioni del DPCM dell'8/3/2020 la biblioteca è temporaneamente chiusa al pubblico"},{"type":"biblioteca","name":"Biblioteca di discipline economico-aziendali","address":",  Bologna (BO)","city":"Bologna","lat":44.494446,"lon":11.349231,"url":"https://acnpsearch.unibo.it/library/BO699","notes":"Biblioteca inattiva per trasloco e riorganizzazione delle collezioni. Non svolge servizi di document delivery né di consultazione in sede"},{"type":"biblioteca","name":"Biblioteca Comunale dell'Archiginnasio","address":"P.zza Galvani, 1, 40124 Bologna (BO)","city":"Bologna","lat":44.491737,"lon":11.343244,"url":"https://acnpsearch.unibo.it/library/BO701","notes":""},{"type":"biblioteca","name":"Biblioteca Amilcar Cabral","address":"Via San Mamolo, 24, 40136 Bologna (BO)","city":"Bologna","lat":44.484917,"lon":11.339402,"url":"https://acnpsearch.unibo.it/library/BO704","notes":""},{"type":"biblioteca","name":"Biblioteca di Casa Carducci","address":"P. Carducci,5, 40125 Bologna (BO)","city":"Bologna","lat":44.48712,"lon":11.357626,"url":"https://acnpsearch.unibo.it/library/BO721","notes":""},{"type":"biblioteca","name":"Istituto Storico Parri","address":"Via Sant'Isaia, 18, 40123 Bologna (BO)","city":"Bologna","lat":44.493587,"lon":11.334175,"url":"https://acnpsearch.unibo.it/library/BO722","notes":""},{"type":"biblioteca","name":"Museo Internazionale e Biblioteca della Musica","address":"Strada Maggiore, 34, 40125 Bologna (BO)","city":"Bologna","lat":44.415478,"lon":12.200154,"url":"https://acnpsearch.unibo.it/library/BO723","notes":""},{"type":"biblioteca","name":"Biblioteca. Museo Civico Archeologico","address":"v. de' Musei, 8, 40124 Bologna (BO)","city":"Bologna","lat":44.492996,"lon":11.344676,"url":"https://acnpsearch.unibo.it/library/BO724","notes":""},{"type":"biblioteca","name":"Biblioteca Agenzia Sanitaria e Sociale Regionale Regione Emilia-Romagna","address":"Viale Aldo Moro, 21, 40127 Bologna (BO)","city":"Bologna","lat":44.509285,"lon":11.362168,"url":"https://acnpsearch.unibo.it/library/BO028","notes":""},{"type":"biblioteca","name":"Biblioteca. Museo Civico del Risorgimento","address":"via de' Musei,8,  Bologna (BO)","city":"Bologna","lat":44.492996,"lon":11.344676,"url":"https://acnpsearch.unibo.it/library/BO726","notes":""},{"type":"biblioteca","name":"Biblioteca Medicina del Lavoro dell'Azienda Ospedaliera-Universitaria di Bologna Policlinico S.Orsola-Malpighi","address":"Via Palagi,9, 40138 Bologna (BO)","city":"Bologna","lat":44.48877,"lon":11.366269,"url":"https://acnpsearch.unibo.it/library/BO738","notes":""},{"type":"biblioteca","name":"Biblioteca CREA Centro di ricerca Agricoltura e Ambiente (ex API)","address":"Via Saliceto, 80, 40128 Bologna (BO)","city":"Bologna","lat":44.524933,"lon":11.349988,"url":"https://acnpsearch.unibo.it/library/BO740","notes":""},{"type":"biblioteca","name":"Biblioteca dell'ARPA Emilia Romagna","address":",  Bologna (BO)","city":"Bologna","lat":44.494446,"lon":11.349231,"url":"https://acnpsearch.unibo.it/library/BO741","notes":""},{"type":"biblioteca","name":"Biblioteca della Facoltà Teologica dell'Emilia Romagna","address":"piazz.le Bacchelli, 4, 40136 Bologna (BO)","city":"Bologna","lat":44.480503,"lon":11.344107,"url":"https://acnpsearch.unibo.it/library/BO742","notes":""},{"type":"biblioteca","name":"Biblioteca dell'Istituzione \"Gian Franco Minguzzi\" della Città metropolitana di Bologna","address":"Via S. Isaia, 90, 40123 Bologna (BO)","city":"Bologna","lat":44.49427,"lon":11.330475,"url":"https://acnpsearch.unibo.it/library/BO801","notes":""},{"type":"biblioteca","name":"Biblioteca Comunale di Imola","address":"Via Emilia 80, 40026 Imola (BO)","city":"Imola","lat":44.353653,"lon":11.713672,"url":"https://acnpsearch.unibo.it/library/BO802","notes":""},{"type":"biblioteca","name":"Centro di documentazione del Consorzio Elettra 2000","address":"Via Celestini, 1, 40037 Pontecchio Marconi (BO)","city":"Pontecchio Marconi","lat":44.431293,"lon":11.267189,"url":"https://acnpsearch.unibo.it/library/BO803","notes":""},{"type":"biblioteca","name":"Biblioteca CREA Centro di ricerca Cerealicoltura e Colture Industriali (ex CIN)","address":"Via Corticella, 133, 40128 Bologna (BO)","city":"Bologna","lat":44.532024,"lon":11.353334,"url":"https://acnpsearch.unibo.it/library/BO804","notes":""},{"type":"biblioteca","name":"Biblioteca della Fondazione Guglielmo Marconi","address":"Via Celestini n° 1, 40044 Pontecchio Marconi (BO)","city":"Pontecchio Marconi","lat":44.431293,"lon":11.267189,"url":"https://acnpsearch.unibo.it/library/BO806","notes":""},{"type":"biblioteca","name":"Biblioteca. Camera di Commercio, Industria, Artigianato e Agricoltura","address":"Via S. Stefano, 1/C, 40125 Bologna (BO)","city":"Bologna","lat":44.5001,"lon":11.344081,"url":"https://acnpsearch.unibo.it/library/BO030","notes":""},{"type":"biblioteca","name":"Biblioteca Italiana delle Donne","address":"Via del Piombo, 5, 40125 Bologna (BO)","city":"Bologna","lat":44.488583,"lon":11.355713,"url":"https://acnpsearch.unibo.it/library/BO807","notes":""},{"type":"biblioteca","name":"Centro di Documentazione \"Flavia Madaschi\" Cassero LGBT Center","address":"Via Don Minzoni, 18, 40121 Bologna (BO)","city":"Bologna","lat":44.502724,"lon":11.337283,"url":"https://acnpsearch.unibo.it/library/BO808","notes":""},{"type":"biblioteca","name":"Biblioteca dell'Accademia Nazionale dell'Agricoltura","address":"Via Castiglione 11, 40124 Bologna (BO)","city":"Bologna","lat":44.491226,"lon":11.346483,"url":"https://acnpsearch.unibo.it/library/BO809","notes":""},{"type":"biblioteca","name":"Biblioteca ISIS Archimede","address":"Via Cento 38/a, 40017 San Giovanni in Persiceto (BO)","city":"San Giovanni in Persiceto","lat":44.682625,"lon":11.21685,"url":"https://acnpsearch.unibo.it/library/BO810","notes":""},{"type":"biblioteca","name":"Biblioteca del Quartiere Savena-Mazzini \"Natalia Ginzburg","address":"Via Genova 10, 40139 Bologna (BO)","city":"Bologna","lat":44.473824,"lon":11.391826,"url":"https://acnpsearch.unibo.it/library/BO811","notes":""},{"type":"biblioteca","name":"Biblioteca Comunale di Rastignano \"Don Milani","address":"Piazza Piccinini, 4/a, 40067 Pianoro (BO)","city":"Pianoro","lat":44.48627,"lon":11.292721,"url":"https://acnpsearch.unibo.it/library/BO812","notes":""},{"type":"biblioteca","name":"Biblioteca di Marzabotto. Casa della Cultura e Memoria","address":"Via Aldo Moro 2, 40043 Marzabotto (BO)","city":"Marzabotto","lat":44.342922,"lon":11.206555,"url":"https://acnpsearch.unibo.it/library/BO813","notes":""},{"type":"biblioteca","name":"Biblioteca Comunale di Sasso Marconi","address":"Piazza dei Martiri, 3, 40037 Sasso Marconi (BO)","city":"Sasso Marconi","lat":44.3944,"lon":11.244809,"url":"https://acnpsearch.unibo.it/library/BO814","notes":""},{"type":"biblioteca","name":"Biblioteca Comunale Pieve di Cento","address":"Piazza Costa 10, 40066 Pieve di Cento (BO)","city":"Pieve di Cento","lat":44.713852,"lon":11.30686,"url":"https://acnpsearch.unibo.it/library/BO815","notes":""},{"type":"biblioteca","name":"Biblioteca Lame - Cesare Malservisi","address":"Via Marco Polo 21/13, 40131 Bologna (BO)","city":"Bologna","lat":44.515747,"lon":11.328035,"url":"https://acnpsearch.unibo.it/library/BO816","notes":""},{"type":"biblioteca","name":"Biblioteca delle Collezioni d'Arte e di Storia - San Giorgio in Poggiale - Fondazione Cassa di Risparmio in Bologna","address":"Via Nazario Sauro, 20/2, 40121 Bologna (BO)","city":"Bologna","lat":44.49773,"lon":11.33882,"url":"https://acnpsearch.unibo.it/library/BO031","notes":"I servizi di prestito e fornitura documenti sono attivi unicamente per i materiali in loco"},{"type":"biblioteca","name":"Biblioteca Comunale Argelato","address":"Via Centese 48, 40050 Argelato (BO)","city":"Argelato","lat":44.651566,"lon":11.331211,"url":"https://acnpsearch.unibo.it/library/BO817","notes":""},{"type":"biblioteca","name":"Biblioteca Comunale Centro Culturale di Funo","address":"Via Don Pasti 80, 40050 Funo di Argelato (BO)","city":"Funo di Argelato","lat":44.588913,"lon":11.366308,"url":"https://acnpsearch.unibo.it/library/BO818","notes":""},{"type":"biblioteca","name":"Biblioteca Comunale Sala Bolognese","address":"Piazza Marconi 5, 40010 Sala Bolognese (BO)","city":"Sala Bolognese","lat":44.62977,"lon":11.277505,"url":"https://acnpsearch.unibo.it/library/BO819","notes":""},{"type":"biblioteca","name":"Mediateca di San Lazzaro di Savena","address":"Via Caselle 22, 40068 San Lazzaro di Savena (BO)","city":"San Lazzaro di Savena","lat":44.47667,"lon":11.4163,"url":"https://acnpsearch.unibo.it/library/BO820","notes":""},{"type":"biblioteca","name":"Biblioteca Comunale Zola Predosa","address":"Piazza Marconi 4, 40069 Zola Predosa (BO)","city":"Zola Predosa","lat":44.49062,"lon":11.222626,"url":"https://acnpsearch.unibo.it/library/BO821","notes":"Orario di apertura ridotto causa lavori: Lunedì:09:00 - 13:00 / 15:00 - 19:00; Martedì:09:00 - 13:00; Mercoledì:09:00 - 13:00; Giovedì:09:00 - 13:00 / 15:00 - 19:00; Venerdì:09:00 - 13:00; Sabato:09:00 - 13:00"},{"type":"biblioteca","name":"Biblioteca Borgo Panigale","address":"Via Legnano, 2, 40132 Bologna (BO)","city":"Bologna","lat":44.522705,"lon":11.264892,"url":"https://acnpsearch.unibo.it/library/BO822","notes":"La biblioteca ha riaperto il 3 giugno nella sua sede"},{"type":"biblioteca","name":"Centro Studi e Documentazione Coni - Biblioteca Sportiva, Palazzo Coni","address":"Via Trattati Comunitari Europei, 7, 40127 Bologna (BO)","city":"Bologna","lat":44.49245,"lon":11.337199,"url":"https://acnpsearch.unibo.it/library/BO823","notes":""},{"type":"biblioteca","name":"Biblioteca di Crespellano","address":"Via Marconi 47, 40053 Valsamoggia - Loc. Crespellano (BO)","city":"bologna","lat":44.514923,"lon":11.129378,"url":"https://acnpsearch.unibo.it/library/BO824","notes":""},{"type":"biblioteca","name":"Biblioteca Comunale Minerbio","address":"Piazza C.A. Dalla Chiesa 1, 40061 Minerbio (BO)","city":"Minerbio","lat":44.62031,"lon":11.489928,"url":"https://acnpsearch.unibo.it/library/BO825","notes":""},{"type":"biblioteca","name":"Biblioteca Comunale Mordano","address":"Via Borgo Generale Vitali 12, 40027 Mordano (BO)","city":"Mordano","lat":44.476,"lon":11.367994,"url":"https://acnpsearch.unibo.it/library/BO826","notes":""},{"type":"biblioteca","name":"Biblioteca. Società Medica Chirurgica di Bologna. Palazzo dell'Archiginnasio.","address":"p. Galvani,1, 40124 Bologna (BO)","city":"Bologna","lat":44.491737,"lon":11.343244,"url":"https://acnpsearch.unibo.it/library/BO033","notes":""},{"type":"biblioteca","name":"Biblioteca Comunale Grizzana Morandi","address":"Località Campiaro 112, 40030 Grizzana Morandi (BO)","city":"Grizzana Morandi","lat":44.26284,"lon":11.149321,"url":"https://acnpsearch.unibo.it/library/BO827","notes":""},{"type":"biblioteca","name":"Biblioteca Comunale Bjornson","address":"Via Idice 58/a - Parco dei ciliegi, 40050 Monterenzio (BO)","city":"Monterenzio","lat":44.328056,"lon":11.405058,"url":"https://acnpsearch.unibo.it/library/BO828","notes":""},{"type":"biblioteca","name":"Biblioteca Comunale S.Giorgio di Piano","address":"Piazza Indipendenza 1, 40016 San Giorgio di Piano (BO)","city":"San Giorgio di Piano","lat":44.646423,"lon":11.375668,"url":"https://acnpsearch.unibo.it/library/BO829","notes":""},{"type":"biblioteca","name":"Biblioteca Comunale di Bentivoglio - Remo Dotti","address":"Via Marconi 5, 40010 Bentivoglio (BO)","city":"Bentivoglio","lat":44.634903,"lon":11.420807,"url":"https://acnpsearch.unibo.it/library/BO830","notes":""},{"type":"biblioteca","name":"Biblioteca Meridiana","address":"via Gandusio 6, 40128 Bologna (BO)","city":"Bologna","lat":44.504696,"lon":11.355173,"url":"https://acnpsearch.unibo.it/library/BO831","notes":"La biblioteca è temporaneamente chiusa ed in fase di trasloco presso nuova sede. La riapertura è prevista ad ottobre 2018. Per informazioni si consiglia contatto mail."},{"type":"biblioteca","name":"Biblioteca Comunale di Monzuno","address":"Via Casaglia 1, 40036 Monzuno (BO)","city":"Monzuno","lat":44.303196,"lon":11.242329,"url":"https://acnpsearch.unibo.it/library/BO832","notes":""},{"type":"biblioteca","name":"Mediateca Comunale di Bazzano","address":"Via Contessa Matilde 10, 40053 Valsamoggia (BO)","city":"Valsamoggia","lat":44.50336,"lon":11.083686,"url":"https://acnpsearch.unibo.it/library/BO833","notes":""},{"type":"biblioteca","name":"Biblioteca Comunale Roberto Ruffilli","address":"Vicolo Bolognetti 2 (primo piano), 40125 Bologna (BO)","city":"Bologna","lat":44.493958,"lon":11.35445,"url":"https://acnpsearch.unibo.it/library/BO834","notes":""},{"type":"biblioteca","name":"Biblioteca Comunale di Vergato","address":"Galleria 1° Maggio, 86/A, 40038 Vergato (BO)","city":"Vergato","lat":43.772022,"lon":11.249786,"url":"https://acnpsearch.unibo.it/library/BO835","notes":""},{"type":"biblioteca","name":"Biblioteca Comunale Anzola dell'Emilia","address":"Piazza Giovanni XXIII, 2, 40011 Anzola dell'Emilia (BO)","city":"Anzola dell'Emilia","lat":44.54729,"lon":11.19341,"url":"https://acnpsearch.unibo.it/library/BO836","notes":""},{"type":"biblioteca","name":"Biblioteca G. Laschi dell'Ospedale Maggiore","address":"lg. Nigrisoli,2, 40133 Bologna (BO)","city":"Bologna","lat":44.412544,"lon":12.20046,"url":"https://acnpsearch.unibo.it/library/BO035","notes":"Le annate delle riviste precedenti al 1992 e diversi titoli non più in abbonamento non sono momentaneamente disponibili, per evitare disservizi si prega di contattarci per telefono o e-mail. Grazie"},{"type":"biblioteca","name":"Biblioteca Comunale di Baricella \"A. GRAMSCI","address":"Via Europa 3, 40052 Baricella (BO)","city":"Baricella","lat":44.665012,"lon":11.577928,"url":"https://acnpsearch.unibo.it/library/BO837","notes":""},{"type":"biblioteca","name":"Biblioteca Comunale Galliera \"G. Zangrandi","address":"Via D. Alighieri, 3/b, 40015 San Vincenzo di Galliera (BO)","city":"San Vincenzo di Galliera","lat":44.734375,"lon":11.43911,"url":"https://acnpsearch.unibo.it/library/BO838","notes":""},{"type":"biblioteca","name":"Biblioteca Comunale Medicina","address":"Via Pillio 1, 40059 Medicina (BO)","city":"Medicina","lat":44.47639,"lon":11.639474,"url":"https://acnpsearch.unibo.it/library/BO839","notes":""},{"type":"biblioteca","name":"Biblioteca Comunale Monteveglio","address":"P.zza della Libertà 12, Loc. Monteveglio, 40053 Valsamoggia (BO)","city":"Valsamoggia","lat":44.469948,"lon":11.100397,"url":"https://acnpsearch.unibo.it/library/BO840","notes":""},{"type":"biblioteca","name":"Biblioteca Comunale di Borgo Tossignano","address":"Via Giovanni XXIII, 11, 40021 Borgo Tossignano (BO)","city":"Borgo Tossignano","lat":44.27673,"lon":11.591273,"url":"https://acnpsearch.unibo.it/library/BO841","notes":""},{"type":"biblioteca","name":"Biblioteca Comunale Alto Reno Terme","address":"Via Roma, 32, 40046 Alto Reno Terme (BO)","city":"Alto Reno Terme","lat":44.15476,"lon":10.975907,"url":"https://acnpsearch.unibo.it/library/BO842","notes":""},{"type":"biblioteca","name":"Biblioteca Sala Borsa Ragazzi","address":"Piazza Nettuno 3, 40124 Bologna (BO)","city":"Bologna","lat":44.494625,"lon":11.34255,"url":"https://acnpsearch.unibo.it/library/BO843","notes":""},{"type":"biblioteca","name":"Biblioteca Comunale Castel San Pietro","address":"Via Marconi, 29, 40024 Castel San Pietro Terme (BO)","city":"Castel San Pietro Terme","lat":44.398327,"lon":11.588382,"url":"https://acnpsearch.unibo.it/library/BO844","notes":""},{"type":"biblioteca","name":"Biblioteca Comunale di Toscanella","address":"Piazza Libertà n. 3, 40060 Toscanella (BO)","city":"Toscanella","lat":44.38393,"lon":11.637033,"url":"https://acnpsearch.unibo.it/library/BO845","notes":""},{"type":"biblioteca","name":"Biblioteca Comunale di Budrio","address":"Via G. Garibaldi 39, 40054 Budrio (BO)","city":"Budrio","lat":44.537777,"lon":11.53667,"url":"https://acnpsearch.unibo.it/library/BO846","notes":""},{"type":"biblioteca","name":"Biblioteca. Johns Hopkins University SAIS Europe at Bologna","address":"Via B. Andreatta, 3, 40126 Bologna (BO)","city":"Bologna","lat":44.49483,"lon":11.355725,"url":"https://acnpsearch.unibo.it/library/BO036","notes":""},{"type":"biblioteca","name":"Biblioteca Comunale di Casalfiumanese","address":"Via Andrea Costa 27, 40020 Casalfiumanese (BO)","city":"Casalfiumanese","lat":44.298393,"lon":11.618899,"url":"https://acnpsearch.unibo.it/library/BO847","notes":""},{"type":"biblioteca","name":"Biblioteca del Quartiere Navile - Corticella","address":"Via Gorki 14, 40128 Bologna (BO)","city":"Bologna","lat":44.545982,"lon":11.358313,"url":"https://acnpsearch.unibo.it/library/BO848","notes":""},{"type":"biblioteca","name":"Biblioteca Comunale di Imola. Sezione ragazzi Casa Piani.","address":"Via Emilia 88, 40026 Imola (BO)","city":"Imola","lat":44.353653,"lon":11.713672,"url":"https://acnpsearch.unibo.it/library/BO849","notes":""},{"type":"biblioteca","name":"Biblioteca Comunale di Castenaso \"Casa Bondi","address":"Via XXI ottobre 1944, 40055 Castenaso (BO)","city":"Castenaso","lat":44.51551,"lon":11.48243,"url":"https://acnpsearch.unibo.it/library/BO850","notes":""},{"type":"biblioteca","name":"Biblioteca Comunale di Castel del Rio","address":"Piazza della Repubblica 96, 40022 Castel del Rio (BO)","city":"Castel del Rio","lat":44.213318,"lon":11.504718,"url":"https://acnpsearch.unibo.it/library/BO851","notes":""},{"type":"biblioteca","name":"Biblioteca Comunale Castel Guelfo","address":"Viale Gramsci, 22, 40023 Castel Guelfo di Bologna (BO)","city":"Castel Guelfo di Bologna","lat":44.431896,"lon":11.67619,"url":"https://acnpsearch.unibo.it/library/BO852","notes":""},{"type":"biblioteca","name":"Biblioteca Comunale Calderara di Reno","address":"Via Roma 27, 40012 Calderara di Reno (BO)","city":"Calderara di Reno","lat":44.56529,"lon":11.272202,"url":"https://acnpsearch.unibo.it/library/BO853","notes":""},{"type":"biblioteca","name":"Biblioteca Renzo Renzi - Fondazione Cineteca di Bologna","address":"Piazzetta Pier Paolo Pasolini 3b, 40122 Bologna (BO)","city":"Bologna","lat":44.501167,"lon":11.336542,"url":"https://acnpsearch.unibo.it/library/BO854","notes":""},{"type":"biblioteca","name":"Biblioteca Comunale di Casalecchio \"C.Pavese","address":"Via Porrettana 360, 40033 Casalecchio di Reno (BO)","city":"Casalecchio di Reno","lat":44.47835,"lon":11.277064,"url":"https://acnpsearch.unibo.it/library/BO855","notes":""},{"type":"biblioteca","name":"Biblioteca Comunale Castiglione dei Pepoli","address":"Via Aldo Moro 32, 40035 Castiglione dei Pepoli (BO)","city":"Castiglione dei Pepoli","lat":44.143795,"lon":11.160206,"url":"https://acnpsearch.unibo.it/library/BO857","notes":""},{"type":"biblioteca","name":"B. Archeologia - Soprintendenza Archeologia, Belle Arti e Paesaggio BOMOREFE","address":"Via Belle Arti, 52, 40126 Bologna (BO)","city":"Bologna","lat":44.497807,"lon":11.352634,"url":"https://acnpsearch.unibo.it/library/BO038","notes":""},{"type":"biblioteca","name":"Biblioteca Comunale Castello di Serravalle","address":"Via S. Apollinare 1352, 40053 Valsamoggia (BO)","city":"Valsamoggia","lat":44.440674,"lon":11.06545,"url":"https://acnpsearch.unibo.it/library/BO858","notes":""},{"type":"biblioteca","name":"Biblioteca Comunale Castello d'Argile","address":"Via G. Matteotti 150, 40050 Castello d'Argile (BO)","city":"Castello d'Argile","lat":44.682552,"lon":11.297034,"url":"https://acnpsearch.unibo.it/library/BO859","notes":""},{"type":"biblioteca","name":"Biblioteca Comunale Crevalcore","address":"Via Caduti di Via Fani 302, 40014 Crevalcore (BO)","city":"Crevalcore","lat":44.718033,"lon":11.147198,"url":"https://acnpsearch.unibo.it/library/BO860","notes":""},{"type":"biblioteca","name":"Museo Della Cività Contadina - Biblioteca dell'Istituzione Villa Smeraldi","address":"Via San Marina 35, 40010 Bentivoglio (BO)","city":"Bentivoglio","lat":44.494236,"lon":11.351201,"url":"https://acnpsearch.unibo.it/library/BO861","notes":""},{"type":"biblioteca","name":"Biblioteca Comunale Malalbergo","address":"Piazza Caduti della Resistenza 1, 40051 Malalbergo (BO)","city":"Malalbergo","lat":44.719013,"lon":11.531567,"url":"https://acnpsearch.unibo.it/library/BO862","notes":""},{"type":"biblioteca","name":"Biblioteca Comunale Monghidoro \"C.Mezzini","address":"Largo Giovanni Pierluigi da Palestrina, 40063 Monghidoro (BO)","city":"Monghidoro","lat":43.764275,"lon":11.170795,"url":"https://acnpsearch.unibo.it/library/BO863","notes":""},{"type":"biblioteca","name":"Biblioteca Comunale Molinella \"S. Ferrari","address":"Piazza A. Martoni, 19/1, 40062 Molinella (BO)","city":"Molinella","lat":44.62073,"lon":11.670919,"url":"https://acnpsearch.unibo.it/library/BO864","notes":""},{"type":"biblioteca","name":"Biblioteca Comunale Sant'Agata Bolognese","address":"Via Circondaria est 23, 40019 Sant'Agata Bolognese (BO)","city":"Sant'Agata Bolognese","lat":44.66345,"lon":11.135211,"url":"https://acnpsearch.unibo.it/library/BO865","notes":""},{"type":"biblioteca","name":"Biblioteca \"Mario Luzi\" San Pietro in Casale - Sezione Adulti","address":"Via Matteott, 123, 40018 San Pietro in Casale (BO)","city":"San Pietro in Casale","lat":44.700317,"lon":11.404327,"url":"https://acnpsearch.unibo.it/library/BO866","notes":""},{"type":"biblioteca","name":"Biblioteca Comunale \"Gianni Rodari\" di Granarolo dell'Emilia","address":"Via S. Donato, 74/25, 40057 Granarolo dell'Emilia (BO)","city":"Granarolo dell'Emilia","lat":44.549416,"lon":11.445487,"url":"https://acnpsearch.unibo.it/library/BO867","notes":""},{"type":"biblioteca","name":"Biblioteca del Mulino","address":"Vicolo Posterla, 1, 40125 Bologna (BO)","city":"Bologna","lat":44.49222,"lon":11.351257,"url":"https://acnpsearch.unibo.it/library/BO039","notes":"La distribuzione del materiale bibliografico richiesto avviene SOLO alle ore 11 del mattino; si consiglia quindi di fare richiesta entro tale orario perché non saranno possibili eccezioni."},{"type":"biblioteca","name":"Biblioteca Comunale di Fontanelice","address":"Via Mengoni 4, 40025 Fontanelice (BO)","city":"Fontanelice","lat":44.26005,"lon":11.559848,"url":"https://acnpsearch.unibo.it/library/BO868","notes":""},{"type":"biblioteca","name":"Accademia Filarmonica di Bologna - Archivio - Biblioteca","address":"Via Guerrazzi 13, 40125 Bologna (BO)","city":"Bologna","lat":44.491093,"lon":11.351115,"url":"https://acnpsearch.unibo.it/library/BO869","notes":""},{"type":"biblioteca","name":"Biblioteca Comunale Loiano","address":"Via Roma 55, 40050 Loiano (BO)","city":"Loiano","lat":44.270584,"lon":11.321535,"url":"https://acnpsearch.unibo.it/library/BO870","notes":""},{"type":"biblioteca","name":"Biblioteca Melograno - yoga e nonviolenza","address":"Via Lombardia 36, 40139 Bologna (BO)","city":"Bologna","lat":44.475334,"lon":11.380011,"url":"https://acnpsearch.unibo.it/library/BO871","notes":"Dal 18 novembre 2019 la biblioteca resterà chiusa per manutenzione fino alla fine dei lavori, ad oggi non prevedibile. Ci scusiamo per il disagio."},{"type":"biblioteca","name":"Biblioteca Comunale \"R. Pettazzoni\" di San Matteo della Decima (Comune di San Giovanni in Persiceto)","address":"Via Cento 158/a, 40017 San Matteo della Decima (BO)","city":"San Matteo della Decima","lat":44.688934,"lon":11.220327,"url":"https://acnpsearch.unibo.it/library/BO872","notes":""},{"type":"biblioteca","name":"Puntolettura Malpighi - Quartiere Saragozza","address":"Via Pietralata 58/60, 40122 Bologna (BO)","city":"Bologna","lat":44.495937,"lon":11.331165,"url":"https://acnpsearch.unibo.it/library/BO873","notes":""},{"type":"biblioteca","name":"Biblioteca Comunale Vado - Sez. Ragazzi","address":"Via Musolesi 14, 40036 Vado di Monzuno (BO)","city":"Vado di Monzuno","lat":44.315563,"lon":11.25668,"url":"https://acnpsearch.unibo.it/library/BO874","notes":""},{"type":"biblioteca","name":"Biblioteca Comunale \"Peppino Impastato\" Monte San Pietro","address":"Piazza della Pace 4, 40050 Monte San Pietro (BO)","city":"Monte San Pietro","lat":44.457565,"lon":11.199673,"url":"https://acnpsearch.unibo.it/library/BO875","notes":""},{"type":"biblioteca","name":"Biblioteca Comunale Mezzolara","address":"Piazza Baldini, 40054 Mezzolara di Budrio (BO)","city":"Mezzolara di Budrio","lat":44.650543,"lon":10.91632,"url":"https://acnpsearch.unibo.it/library/BO876","notes":""},{"type":"biblioteca","name":"Biblioteca Comunale Castel Maggiore \"N. Ginzburg","address":"Via Bondanello 30, 40013 Castel Maggiore (BO)","city":"Castel Maggiore","lat":44.587887,"lon":11.34609,"url":"https://acnpsearch.unibo.it/library/BO877","notes":""},{"type":"biblioteca","name":"Biblioteca ENEA di Bologna","address":"Via Martiri di Monte Sole, 4, 40129 Bologna (BO)","city":"Bologna","lat":44.52565,"lon":11.344736,"url":"https://acnpsearch.unibo.it/library/BO006","notes":""},{"type":"biblioteca","name":"Biblioteca Comunale \"G.C. Croce\" - Palazzo SS. Salvatore","address":"Piazza Garibaldi 7, 40017 San Giovanni in Persiceto (BO)","city":"San Giovanni in Persiceto","lat":44.637627,"lon":11.188091,"url":"https://acnpsearch.unibo.it/library/BO040","notes":""},{"type":"biblioteca","name":"Biblioteca Comunale Pianoro \"Silvio Mucini","address":"Via Padre Marella, 19, 40065 Pianoro (BO)","city":"Pianoro","lat":44.496704,"lon":11.343532,"url":"https://acnpsearch.unibo.it/library/BO878","notes":""},{"type":"biblioteca","name":"Biblioteca Comunale di Osteria Grande frazione di Castel San Pietro Terme","address":"Viale Broccoli, 41, 40024 Osteria Grande (BO)","city":"Osteria Grande","lat":44.427124,"lon":11.520114,"url":"https://acnpsearch.unibo.it/library/BO879","notes":""},{"type":"biblioteca","name":"Biblioteca Orlando Pezzoli","address":"Via Battindarno 123, 40133 Bologna (BO)","city":"Bologna","lat":44.50179,"lon":11.296792,"url":"https://acnpsearch.unibo.it/library/BO880","notes":""},{"type":"biblioteca","name":"Biblioteca Comunale Ozzano dell'Emilia \"8 MARZO 1908","address":"Piazza Allende 18, 40064 Ozzano dell'Emilia (BO)","city":"Ozzano dell'Emilia","lat":44.443024,"lon":11.476233,"url":"https://acnpsearch.unibo.it/library/BO881","notes":""},{"type":"biblioteca","name":"Biblioteca di Ponticelli","address":"Via Montanara 252/c, 40026 Ponticelli (BO)","city":"Ponticelli","lat":44.319794,"lon":11.65218,"url":"https://acnpsearch.unibo.it/library/BO882","notes":""},{"type":"biblioteca","name":"Biblioteca Comunale Quartiere Porto \"J.L. Borges","address":"Via Dello Scalo 21/2, 40131 Bologna (BO)","city":"Bologna","lat":44.499847,"lon":11.326717,"url":"https://acnpsearch.unibo.it/library/BO883","notes":""},{"type":"biblioteca","name":"Biblioteca Sala Borsa","address":"Piazza Nettuno 3, 40124 Bologna (BO)","city":"Bologna","lat":44.494625,"lon":11.34255,"url":"https://acnpsearch.unibo.it/library/BO884","notes":""},{"type":"biblioteca","name":"Biblioteca di Sesto Imolese","address":"Via San Vitale 125, 40060 Sesto Imolese (BO)","city":"Sesto Imolese","lat":44.460457,"lon":11.727913,"url":"https://acnpsearch.unibo.it/library/BO885","notes":""},{"type":"biblioteca","name":"Biblioteca Scandellara - Mirella Bartolotti","address":"Via Scandellara 50, 40138 Bologna (BO)","city":"Bologna","lat":44.496536,"lon":11.383286,"url":"https://acnpsearch.unibo.it/library/BO886","notes":""},{"type":"biblioteca","name":"Biblioteca Giuridica","address":"Via Zamboni 13, 40126 Bologna (BO)","city":"Bologna","lat":44.495365,"lon":11.348406,"url":"https://acnpsearch.unibo.it/library/BO887","notes":""},{"type":"biblioteca","name":"Biblioteca dell'Assemblea Legislativa della Regione Emilia-Romagna","address":"V.le A. Moro, 32, 40127 Bologna (BO)","city":"Bologna","lat":44.509285,"lon":11.362168,"url":"https://acnpsearch.unibo.it/library/BO041","notes":""},{"type":"biblioteca","name":"Biblioteca Comunale Tassinari Clò - Quartiere Saragozza","address":"Via di Casaglia 7, 40135 Bologna (BO)","city":"Bologna","lat":44.486694,"lon":11.315091,"url":"https://acnpsearch.unibo.it/library/BO888","notes":""},{"type":"biblioteca","name":"Centro dipartimentale Scienze dell'Islam","address":"Via Zamboni 33, 40126 Bologna (BO)","city":"Bologna","lat":44.49688,"lon":11.352409,"url":"https://acnpsearch.unibo.it/library/BO889","notes":""},{"type":"biblioteca","name":"Biblioteca Ufficio Istituti Culturali","address":"Via San Felice, 25 (3° piano), 40122 Bologna (BO)","city":"Bologna","lat":44.49742,"lon":11.348662,"url":"https://acnpsearch.unibo.it/library/BO890","notes":""},{"type":"biblioteca","name":"Biblioteca \"Luigi Spina","address":"Via Casini 5, 40127 Bologna (BO)","city":"Bologna","lat":44.5111,"lon":11.395344,"url":"https://acnpsearch.unibo.it/library/BO891","notes":""},{"type":"biblioteca","name":"Biblioteca I.P.S.S.E.R (Istituto Petroniano Studi Sociali Emilia Romagna)","address":"Via Riva di Reno, 57, 40122 Bologna (BO)","city":"Bologna","lat":44.49525,"lon":11.334588,"url":"https://acnpsearch.unibo.it/library/BO892","notes":""},{"type":"biblioteca","name":"Biblioteca del Centro di Documentazione e promozione famigliare \"G.P. DORE","address":"Via del Monte 5, 40126 Bologna (BO)","city":"Bologna","lat":44.496193,"lon":11.344354,"url":"https://acnpsearch.unibo.it/library/BO893","notes":""},{"type":"biblioteca","name":"Biblioteca dell'Associazione \"La Fameja bulgneisa","address":"Via Barberia 11, 40123 Bologna (BO)","city":"Bologna","lat":44.49182,"lon":11.338416,"url":"https://acnpsearch.unibo.it/library/BO894","notes":""},{"type":"biblioteca","name":"Biblioteca del Museo del Patrimonio Industriale","address":"Via della Beverara 123, 40131 Bologna (BO)","city":"Bologna","lat":44.521984,"lon":11.331277,"url":"https://acnpsearch.unibo.it/library/BO895","notes":""},{"type":"biblioteca","name":"Biblioteca \"N. Copernico","address":"Via Garavaglia 12, 40127 Bologna (BO)","city":"Bologna","lat":44.506,"lon":11.365369,"url":"https://acnpsearch.unibo.it/library/BO896","notes":""},{"type":"biblioteca","name":"Biblioteca Michele Ranchetti - (Centro Furio Jesi)","address":"Via Lombardia 36, 40139 Bologna (BO)","city":"Bologna","lat":44.475334,"lon":11.380011,"url":"https://acnpsearch.unibo.it/library/BO897","notes":"La biblioteca resterà chiusa dal 23 dicembre 2019 al 20 gennaio 2020"},{"type":"biblioteca","name":"Centro Documentazione Mondialità","address":"Via Guerrazzi,14, 40125 Bologna (BO)","city":"Bologna","lat":44.491333,"lon":11.351283,"url":"https://acnpsearch.unibo.it/library/BO042","notes":""},{"type":"biblioteca","name":"Biblioteca Ecosostenibile Cestas","address":"Via Ranzani 13/5/g, 40127 Bologna (BO)","city":"Bologna","lat":44.500233,"lon":11.358208,"url":"https://acnpsearch.unibo.it/library/BO898","notes":""},{"type":"biblioteca","name":"Biblioteca \"F. ANELLI\" Società Speleologica Italiana","address":"Via Zamboni, 67, 40126 Bologna (BO)","city":"Bologna","lat":44.498077,"lon":11.355608,"url":"https://acnpsearch.unibo.it/library/BO899","notes":""},{"type":"biblioteca","name":"Biblioteca del C.I.D.R.A","address":"Via dei Mille 26, 40026 Imola (BO)","city":"Imola","lat":44.316788,"lon":11.80209,"url":"https://acnpsearch.unibo.it/library/BO900","notes":""},{"type":"biblioteca","name":"Biblioteca della Casa di Riposo \"Lyda Borrelli","address":"Via Saragozza, 236, 40135 Bologna (BO)","city":"Bologna","lat":44.489567,"lon":11.311812,"url":"https://acnpsearch.unibo.it/library/BO901","notes":""},{"type":"biblioteca","name":"Biblioteca del Conservatorio di Musica \"Giovan Battista Martini","address":"Piazza Rossini 2, 40126 Bologna (BO)","city":"Bologna","lat":44.4954,"lon":11.348955,"url":"https://acnpsearch.unibo.it/library/BO902","notes":""},{"type":"biblioteca","name":"Biblioteca \"Casa di khaoula\" del Quartiere Navile","address":"Via di Corticella 104, 40128 Bologna (BO)","city":"Bologna","lat":44.517563,"lon":11.347844,"url":"https://acnpsearch.unibo.it/library/BO903","notes":""},{"type":"biblioteca","name":"Istituto Nazionale di Geofisica e Vulcanologia","address":"Via Donato Creti 12, 40128 Bologna (BO)","city":"Bologna","lat":44.510548,"lon":11.350737,"url":"https://acnpsearch.unibo.it/library/BO904","notes":""},{"type":"biblioteca","name":"Biblioteca Capitolare","address":"Piazza Garibaldi 3, 40017 San Giovanni in Persiceto (BO)","city":"San Giovanni in Persiceto","lat":44.637627,"lon":11.188091,"url":"https://acnpsearch.unibo.it/library/BO905","notes":""},{"type":"biblioteca","name":"Biblioteca dell'Archivio Storico CISL Bologna \"Rino Bergamaschi","address":"Via Amendola 2, 40121 Bologna (BO)","city":"Bologna","lat":44.503563,"lon":11.339724,"url":"https://acnpsearch.unibo.it/library/BO906","notes":""},{"type":"biblioteca","name":"Biblioteca \"Giulio Cesare Croce\" Sezione Ragazzi","address":"Parco Pettazzoni, 2, 40017 S. Giovanni in Persiceto (BO)","city":"bologna","lat":44.637627,"lon":11.188091,"url":"https://acnpsearch.unibo.it/library/BO907","notes":""},{"type":"biblioteca","name":"Biblioteca Provinciale dei Frati Minori dell'Emilia-Romagna","address":"Via Guinizelli, 3, 40125 Bologna (BO)","city":"Bologna","lat":44.486492,"lon":11.359353,"url":"https://acnpsearch.unibo.it/library/BO044","notes":""},{"type":"biblioteca","name":"Biblioteca dei Bambini S. Mattia del Quartiere Saragozza","address":"Via S. Isaia, 20/b, 40122 Bologna (BO)","city":"Bologna","lat":44.493633,"lon":11.333927,"url":"https://acnpsearch.unibo.it/library/BO908","notes":"Siete i benvenuti, vi aspettiamo! SABATI APERTURA ALL'UTENZA 2019-2020: SETTEMBRE 28 / OTTOBRE 12 - 26 / NOVEMBRE 9 - 23 -30 / DICEMBRE 14 / FEBBRAIO 8 - 22 / MARZO 14 - 28 / APRILE 4 - 18 / MAGGIO 16"},{"type":"biblioteca","name":"Biblioteca Mambo Museo D'Arte Moderna di Bologna","address":"Via Don Minzoni 14, 40121 Bologna (BO)","city":"Bologna","lat":44.50276,"lon":11.337025,"url":"https://acnpsearch.unibo.it/library/BO909","notes":""},{"type":"biblioteca","name":"Puntolettura Bollini - Speroni - Quartiere Saragozza","address":"Via Pietralata 58/60, 40122 Bologna (BO)","city":"Bologna","lat":44.495937,"lon":11.331165,"url":"https://acnpsearch.unibo.it/library/BO910","notes":""},{"type":"biblioteca","name":"Biblioteca FMR Gianni Guadalupi","address":"Via S. Stefano, 17/a, 40125 Bologna (BO)","city":"Bologna","lat":44.494217,"lon":11.35182,"url":"https://acnpsearch.unibo.it/library/BO911","notes":""},{"type":"biblioteca","name":"CID-AICS Centro Informazione Documentazione-AICS","address":"Via Speranza, 43, 40068 San Lazzaro di Savena (BO)","city":"San Lazzaro di Savena","lat":44.47632,"lon":11.406758,"url":"https://acnpsearch.unibo.it/library/BO912","notes":""},{"type":"biblioteca","name":"Biblioteca dell'Archivio di Stato di Bologna","address":"Piazza dei Celestini,4, 40123 Bologna (BO)","city":"Bologna","lat":44.49224,"lon":11.341388,"url":"https://acnpsearch.unibo.it/library/BO913","notes":""},{"type":"biblioteca","name":"Biblioteca I.T.C \"Crescenzi\" - I.T.G \"Pacinotti","address":"Via Saragozza, 9, 40123 Bologna (BO)","city":"Bologna","lat":44.49029,"lon":11.336358,"url":"https://acnpsearch.unibo.it/library/BO914","notes":""},{"type":"biblioteca","name":"Informatur Centro Europa Uno","address":"Via Emilia 297, 40068 San Lazzaro di Savena (BO)","city":"San Lazzaro di Savena","lat":44.46373,"lon":11.428388,"url":"https://acnpsearch.unibo.it/library/BO915","notes":""},{"type":"biblioteca","name":"Biblioteca \"La soffitta dei libri","address":"Via Scandellara, 50, 40138 Bologna (BO)","city":"Bologna","lat":44.49655,"lon":11.383257,"url":"https://acnpsearch.unibo.it/library/BO916","notes":""},{"type":"biblioteca","name":"Biblioteca Galvani Pasolini","address":"Via Castiglione, 38, 40124 Bologna (BO)","city":"Bologna","lat":44.48911,"lon":11.347396,"url":"https://acnpsearch.unibo.it/library/BO917","notes":""},{"type":"biblioteca","name":"Biblioteca dello studentato missioni dei padri Dehoniani","address":"Via Sante Vincenzi, 45, 40138 Bologna (BO)","city":"Bologna","lat":44.49628,"lon":11.366826,"url":"https://acnpsearch.unibo.it/library/BO045","notes":""},{"type":"biblioteca","name":"Biblioteca Ragazzi Pippi Calzelunghe","address":"c/o Centro Sociale \"Zolino\" via Tinti 1, 40026 Imola (BO)","city":"Imola","lat":44.36671,"lon":11.69157,"url":"https://acnpsearch.unibo.it/library/BO918","notes":""},{"type":"biblioteca","name":"Biblioteca Comunale Sasso Morelli","address":"Via Correcchio 142, 40126 Imola (BO)","city":"Imola","lat":44.41036,"lon":11.731665,"url":"https://acnpsearch.unibo.it/library/BO919","notes":""},{"type":"biblioteca","name":"Biblioteca del Centro Ri.E.Sco - Centro Servizi Consulenza Risorse Educative Scolastiche","address":"Via Ca' Selvatica 7, 40123 Bologna (BO)","city":"Bologna","lat":44.492195,"lon":11.334053,"url":"https://acnpsearch.unibo.it/library/BO920","notes":""},{"type":"biblioteca","name":"Biblioteca di Statistica della Regione Emilia Romagna","address":"Viale Aldo Moro, 32, 40127 Bologna (BO)","city":"Bologna","lat":44.509033,"lon":11.362423,"url":"https://acnpsearch.unibo.it/library/BO921","notes":""},{"type":"biblioteca","name":"Biblioteca Giuseppe Guglielmi dell'Istituto per i Beni Artistici, Culturali e Naturali della Regione","address":"Via Marsala, 31, 40126 Bologna (BO)","city":"Bologna","lat":44.496822,"lon":11.347277,"url":"https://acnpsearch.unibo.it/library/BO922","notes":""},{"type":"biblioteca","name":"Biblioteca dell'Ambiente della Regione Emilia Romagna","address":"Viale Aldo Moro, 32, 40127 Bologna (BO)","city":"Bologna","lat":44.509033,"lon":11.362423,"url":"https://acnpsearch.unibo.it/library/BO923","notes":""},{"type":"biblioteca","name":"Biblioteca Giuridica - Centro di Documentazione delle Giunta della Regione Emilia Romagna","address":"Viale Aldo Moro, 52, 40127 Bologna (BO)","city":"Bologna","lat":44.50694,"lon":11.364616,"url":"https://acnpsearch.unibo.it/library/BO924","notes":""},{"type":"biblioteca","name":"Scuola di Musica Vassura Baroncini","address":"Viale Carducci, 29, 40026 Imola (BO)","city":"Imola","lat":44.35772,"lon":11.711561,"url":"https://acnpsearch.unibo.it/library/BO925","notes":""},{"type":"biblioteca","name":"Biblioteca del Museo Ebraico di Bologna","address":"Via Valdonica, 1/2, 40126 Bologna (BO)","city":"Bologna","lat":44.49599,"lon":11.34788,"url":"https://acnpsearch.unibo.it/library/BO926","notes":""},{"type":"biblioteca","name":"Biblioteca Museo Morandi","address":"Via Don Minzoni 14, 40121 Bologna (BO)","city":"Bologna","lat":44.502773,"lon":11.337031,"url":"https://acnpsearch.unibo.it/library/BO927","notes":""},{"type":"biblioteca","name":"Biblioteca Provinciale dei Cappuccini dell'Emilia-Romagna","address":"Via Bellinzona, 6, 40135 Bologna (BO)","city":"Bologna","lat":44.489548,"lon":11.325796,"url":"https://acnpsearch.unibo.it/library/BO046","notes":""},{"type":"biblioteca","name":"Biblioteca scolastica di Istituto Orsini","address":"Via Vivaldi, 76, 40026 Imola (BO)","city":"Imola","lat":44.345497,"lon":11.681644,"url":"https://acnpsearch.unibo.it/library/BO928","notes":""},{"type":"biblioteca","name":"Fototeca IBC","address":"Via Marsala 31, 40126 Bologna (BO)","city":"Bologna","lat":44.49683,"lon":11.347357,"url":"https://acnpsearch.unibo.it/library/BO929","notes":""},{"type":"biblioteca","name":"B. Musei d'Arte Antica di Bologna","address":"Via Manzoni, 4,  Bologna (BO)","city":"Bologna","lat":44.496452,"lon":11.342477,"url":"https://acnpsearch.unibo.it/library/BO930","notes":""},{"type":"biblioteca","name":"Biblioteca Licei Rambaldi-Valeriani-Alessandro da Imola","address":"Via Guicciardini 4, 40026 Imola (BO)","city":"Imola","lat":44.34756,"lon":11.717389,"url":"https://acnpsearch.unibo.it/library/BO931","notes":""},{"type":"biblioteca","name":"Biblioteca Centro Documentazione Handicap CDH","address":"Via Pirandello 24, 40127 Bologna (BO)","city":"Bologna","lat":44.5124,"lon":11.38672,"url":"https://acnpsearch.unibo.it/library/BO932","notes":""},{"type":"biblioteca","name":"Biblioteca Comunale di Lizzano in Belvedere","address":"c/o Ex-Colonia Ferrarese Via Roma 2, 40042 Lizzano in Belvedere (BO)","city":"Lizzano in Belvedere","lat":44.16378,"lon":10.892083,"url":"https://acnpsearch.unibo.it/library/BO933","notes":""},{"type":"biblioteca","name":"Biblioteca della Fondazione Istituto LISZT Onlus","address":"Via Augusto Righi 30, 40126 Bologna (BO)","city":"Bologna","lat":44.498688,"lon":11.346128,"url":"https://acnpsearch.unibo.it/library/BO934","notes":""},{"type":"biblioteca","name":"Biblioteca \"Paolo Bollini\" del Liceo Scientifico A. Righi","address":"Viale Pepoli 3, 40123 Bologna (BO)","city":"Bologna","lat":44.492737,"lon":11.329178,"url":"https://acnpsearch.unibo.it/library/BO935","notes":"Il prestito online è interrotto da venerdì 24 maggio 2019 a data da destinarsi"},{"type":"biblioteca","name":"Biblioteca Comunale di Savigno","address":"Via Marconi 49 - Loc. Savigno, 40053 Valsamoggia (BO)","city":"Valsamoggia","lat":44.504314,"lon":11.07995,"url":"https://acnpsearch.unibo.it/library/BO936","notes":""},{"type":"biblioteca","name":"Centro Italiano di Documentazione sulla Cooperazione e l'Economia Sociale","address":"Via Mentana 2, 40126 Bologna (BO)","city":"Bologna","lat":44.497528,"lon":11.34758,"url":"https://acnpsearch.unibo.it/library/BO937","notes":""},{"type":"biblioteca","name":"Biblioteca ENEA C.R. Brasimone","address":"Loc Brasimone, 40032 Camugnano (BO)","city":"Camugnano","lat":44.127827,"lon":11.112928,"url":"https://acnpsearch.unibo.it/library/BO047","notes":""},{"type":"biblioteca","name":"Biblioteca \"Il mondo incantato","address":"Via Zanardi 249, 40131 Bologna (BO)","city":"Bologna","lat":44.52447,"lon":11.3183,"url":"https://acnpsearch.unibo.it/library/BO938","notes":""},{"type":"biblioteca","name":"Biblioteca Comunale di Gaggio Montano","address":"Piazza A. Brasa 1, 40041 Gaggio Montano (BO)","city":"Gaggio Montano","lat":44.19875,"lon":10.93612,"url":"https://acnpsearch.unibo.it/library/BO939","notes":""},{"type":"biblioteca","name":"Biblioteca Ragazzi San Pietro in Casale","address":"Piazza Martiri della Libertà, 12, 40018 San Pietro in Casale (BO)","city":"San Pietro in Casale","lat":44.70024,"lon":11.404388,"url":"https://acnpsearch.unibo.it/library/BO940","notes":""},{"type":"biblioteca","name":"Biblioteca \"Gabriella Guidi\" dell'Istituto Comprensivo 13","address":"Via dell'Angelo Custode 1/3, 40141 Bologna (BO)","city":"Bologna","lat":44.459003,"lon":11.368464,"url":"https://acnpsearch.unibo.it/library/BO941","notes":""},{"type":"biblioteca","name":"Area Biblioteche e Servizi allo Studio","address":"Viale Filopanti, 7, 40126 Bologna (BO)","city":"Bologna","lat":44.4954,"lon":11.3568,"url":"https://acnpsearch.unibo.it/library/BO999","notes":"Biblioteca di servizio del Settore Gestione e sviluppo del Catalogo Italiano Periodici ACNP. Per la richiesta di articoli rivolgersi alle altre biblioteche del catalogo."},{"type":"biblioteca","name":"Palazzo Paleotti - via Zamboni n. 25","address":",  Bologna (BO)","city":"Bologna","lat":44.494446,"lon":11.349231,"url":"https://acnpsearch.unibo.it/library/ST001","notes":""},{"type":"biblioteca","name":"Sala studio di via Azzo Gardino n. 33, presso il Centro Polifunzionale Unione","address":",  Bologna (BO)","city":"Bologna","lat":44.494446,"lon":11.349231,"url":"https://acnpsearch.unibo.it/library/ST002","notes":""},{"type":"biblioteca","name":"Sala studio di via Belle Arti n. 8","address":",  Bologna (BO)","city":"Bologna","lat":44.494446,"lon":11.349231,"url":"https://acnpsearch.unibo.it/library/ST003","notes":""},{"type":"biblioteca","name":"Sala studio di via B. Andreatta N. 4","address":",  Bologna (BO)","city":"Bologna","lat":44.494446,"lon":11.349231,"url":"https://acnpsearch.unibo.it/library/ST004","notes":""},{"type":"biblioteca","name":"Sala studio di via Ranzani n. 14","address":",  Bologna (BO)","city":"Bologna","lat":44.494446,"lon":11.349231,"url":"https://acnpsearch.unibo.it/library/ST005","notes":""},{"type":"biblioteca","name":"Biblioteca Universitaria di Bologna. Sezione Archivio storico","address":"Via Zamboni, 33-35, 40126 Bologna (BO)","city":"Bologna","lat":44.4971,"lon":11.352478,"url":"https://acnpsearch.unibo.it/library/BO100","notes":""},{"type":"biblioteca","name":"Sala studio di via Irnerio n. 46","address":",  Bologna (BO)","city":"Bologna","lat":44.494446,"lon":11.349231,"url":"https://acnpsearch.unibo.it/library/ST006","notes":""},{"type":"biblioteca","name":"Sala studio di viale Berti Pichat n. 6","address":",  Bologna (BO)","city":"Bologna","lat":44.494446,"lon":11.349231,"url":"https://acnpsearch.unibo.it/library/ST007","notes":""},{"type":"biblioteca","name":"Sala studio di via Petroni n. 13/b","address":",  Bologna (BO)","city":"Bologna","lat":44.494446,"lon":11.349231,"url":"https://acnpsearch.unibo.it/library/ST008","notes":""},{"type":"biblioteca","name":"Sala studio","address":",  Bologna (BO)","city":"Bologna","lat":44.494446,"lon":11.349231,"url":"https://acnpsearch.unibo.it/library/ST009","notes":""},{"type":"biblioteca","name":"AlmaRE - Biblioteca delle Risorse Elettroniche dell'Ateneo di Bologna","address":", 40126 Bologna (BO)","city":"Bologna","lat":44.50194,"lon":11.349333,"url":"https://acnpsearch.unibo.it/library/UNIBO","notes":"Le richieste di Document Delivery vanno indirizzate alle biblioteche di area disciplinare pertinente."},{"type":"biblioteca","name":"Biblioteca Giuridica \"Antonio Cicu\". Sezione Centrale","address":"Via Zamboni, 27/29, 40126 Bologna (BO)","city":"Bologna","lat":44.496593,"lon":11.35155,"url":"https://acnpsearch.unibo.it/library/BO101","notes":"Il materiale con collocazione \"Malvezzi\" non sarà disponibile fino al termine dei lavori di ristrutturazione che interesseranno il deposito seminterrato."},{"type":"biblioteca","name":"Biblioteca Giuridica \"Antonio Cicu\". Sezione di Diritto amministrativo (SPISA)","address":"Via Belmeloro, 10, 40126 Bologna (BO)","city":"Bologna","lat":44.49531,"lon":11.354879,"url":"https://acnpsearch.unibo.it/library/BO102","notes":""},{"type":"biblioteca","name":"Biblioteca del Collegio di Spagna","address":"V. Collegio di Spagna, 4, 40123 Bologna (BO)","city":"Bologna","lat":44.49058,"lon":11.338109,"url":"https://acnpsearch.unibo.it/library/BO008","notes":""},{"type":"biblioteca","name":"Biblioteca Giuridica \"Antonio Cicu\". Sezione Centrale. Fondo Galgano","address":"Via Belmeloro, 12, 40126 Bologna (BO)","city":"Bologna","lat":44.49505,"lon":11.355921,"url":"https://acnpsearch.unibo.it/library/BO103","notes":"Le riviste del Fondo Galgano non sono accessibili. Gli stessi titoli sono disponibili anche presso la Biblioteca Giuridica \"Antonio Cicu\" (BO101)"},{"type":"biblioteca","name":"Biblioteca Giuridica \"Antonio Cicu\". Sezione di Informatica giuridica e Bioetica (CIRSFID)","address":"Via Galliera, 3, 40121 Bologna (BO)","city":"Bologna","lat":44.49719,"lon":11.341784,"url":"https://acnpsearch.unibo.it/library/BO104","notes":""},{"type":"biblioteca","name":"Biblioteca Giuridica \"Antonio Cicu\". Centro di Documentazione Europea","address":"Via Zamboni, 27/29, 40126 Bologna (BO)","city":"Bologna","lat":44.496593,"lon":11.35155,"url":"https://acnpsearch.unibo.it/library/BO106","notes":""},{"type":"biblioteca","name":"Biblioteca del Dipartimento di Scienze economiche - DSE","address":"Strada Maggiore, 45, 40125 Bologna (BO)","city":"Bologna","lat":44.49134,"lon":11.353965,"url":"https://acnpsearch.unibo.it/library/BO112","notes":""},{"type":"biblioteca","name":"Biblioteca del Dipartimento di Sociologia e Diritto dell'Economia - SDE. Sezione di Sociologia","address":"Strada Maggiore 45, 40125 Bologna (BO)","city":"Bologna","lat":44.49134,"lon":11.353965,"url":"https://acnpsearch.unibo.it/library/BO113","notes":""},{"type":"biblioteca","name":"Biblioteca \"Nicola Matteucci\" del Dipartimento di Scienze politiche e sociali - SPS","address":"Strada Maggiore 45, 40125 Bologna (BO)","city":"Bologna","lat":44.49134,"lon":11.353965,"url":"https://acnpsearch.unibo.it/library/BO114","notes":""},{"type":"biblioteca","name":"Biblioteca di discipline economiche \"Walter Bigiavi","address":"Via delle Belle Arti, 33, 40126 Bologna (BO)","city":"Bologna","lat":44.497784,"lon":11.351897,"url":"https://acnpsearch.unibo.it/library/BO121","notes":""},{"type":"biblioteca","name":"Biblioteca del Dipartimento di Sociologia e Diritto dell'Economia - SDE. Sezione di Diritto dell'economia","address":"Via S. Giacomo, 3, 40126 Bologna (BO)","city":"Bologna","lat":44.49696,"lon":11.35383,"url":"https://acnpsearch.unibo.it/library/BO122","notes":""},{"type":"biblioteca","name":"Biblioteca di Matematica, Fisica, Astronomia e Informatica. Sezione di Matematica. Fondo librario di Viale Filopanti 5","address":"Viale Filopanti 5, 40126 Bologna (BO)","city":"Bologna","lat":44.496586,"lon":11.356666,"url":"https://acnpsearch.unibo.it/library/BO126","notes":""},{"type":"biblioteca","name":"Biblioteca \"Giuseppe Testoni\" del Dipartimento di Scienze aziendali - DiSA","address":"Piazza Scaravilli 1, 40126 Bologna (BO)","city":"Bologna","lat":44.497086,"lon":11.351981,"url":"https://acnpsearch.unibo.it/library/BO129","notes":""},{"type":"biblioteca","name":"Biblioteca del Convento Patriarcale di S. Domenico","address":"p. S. Domenico,13, 40124 Bologna (BO)","city":"Bologna","lat":44.48815,"lon":11.345324,"url":"https://acnpsearch.unibo.it/library/BO009","notes":""},{"type":"biblioteca","name":"Biblioteca del Dipartimento di Scienze statistiche \"Paolo Fortunati\" - STAT","address":"Via Belle Arti, 41, 40126 Bologna (BO)","city":"Bologna","lat":44.497772,"lon":11.352125,"url":"https://acnpsearch.unibo.it/library/BO133","notes":""},{"type":"biblioteca","name":"Biblioteca di discipline umanistiche","address":"Via Zamboni, 36, 40126 Bologna (BO)","city":"Bologna","lat":44.496716,"lon":11.351615,"url":"https://acnpsearch.unibo.it/library/BO201","notes":"Per lavori di adeguamento alla normativa antincendio dei depositi della biblioteca parte dei periodici non sarà disponibile fino a data da destinarsi. Gli unici periodici che rimarranno disponibili sono le ultime due annate dei periodici collocati in Emeroteca."},{"type":"biblioteca","name":"Biblioteca del Dipartimento di Storia Culture Civiltà - DiSCi. Sezione di Archeologia. Sede di Bologna","address":"Piazza San Giovanni in Monte, 2, 40124 Bologna (BO)","city":"Bologna","lat":44.49092,"lon":11.348367,"url":"https://acnpsearch.unibo.it/library/BO204","notes":""},{"type":"biblioteca","name":"Biblioteca del Dipartimento di Filosofia e Comunicazione - FILCOM. Sezione di Comunicazione","address":"Via Azzo Gardino, 23, 40122 Bologna (BO)","city":"Bologna","lat":44.500538,"lon":11.337626,"url":"https://acnpsearch.unibo.it/library/BO205","notes":""},{"type":"biblioteca","name":"Biblioteca delle Arti. Sezione di Musica e Spettacolo","address":"Via Barberia 4, 40123 Bologna (BO)","city":"Bologna","lat":44.49153,"lon":11.339224,"url":"https://acnpsearch.unibo.it/library/BO206","notes":""},{"type":"biblioteca","name":"Biblioteca del Dipartimento di Lingue, Letterature e Culture moderne - LILEC","address":"Via Cartoleria, 5, 40124 Bologna (BO)","city":"Bologna","lat":44.489758,"lon":11.349047,"url":"https://acnpsearch.unibo.it/library/BO209","notes":""},{"type":"biblioteca","name":"Biblioteca del Dipartimento di Filosofia e Comunicazione - FILCOM. Sezione di Filosofia","address":"Via Zamboni 38, 40126 Bologna (BO)","city":"Bologna","lat":44.496815,"lon":11.352036,"url":"https://acnpsearch.unibo.it/library/BO210","notes":""},{"type":"biblioteca","name":"Biblioteca del Dipartimento di Storia Culture Civiltà - DiSCi. Sezione di Geografia","address":"Via Guerrazzi, 20, 40124 Bologna (BO)","city":"Bologna","lat":44.491924,"lon":11.351534,"url":"https://acnpsearch.unibo.it/library/BO211","notes":""},{"type":"biblioteca","name":"Biblioteca del Dipartimento di Storia Culture Civiltà - DiSCi. Sezione di Orientalistica e Antropologia","address":"Via Zamboni 33, 40126 Bologna (BO)","city":"Bologna","lat":44.49693,"lon":11.352389,"url":"https://acnpsearch.unibo.it/library/BO212","notes":"Temporaneamente non disponibili le collocazioni dei periodici cessati di ambito linguistico da PER. 2 a PER 167. Fino al termine dell'emergenza coronavirus sara' possibile evadere solo le richieste di documenti elettronici."},{"type":"biblioteca","name":"Biblioteca \"Ezio Raimondi\" del Dipartimento di Filologia classica e Italianistica - FICLIT","address":"Via Zamboni, 32, 40126 Bologna (BO)","city":"Bologna","lat":44.496502,"lon":11.35125,"url":"https://acnpsearch.unibo.it/library/BO213","notes":""},{"type":"biblioteca","name":"Biblioteca CNR Area della Ricerca di Bologna","address":"Via P.Gobetti, 101, 40129 Bologna (BO)","city":"Bologna","lat":44.522797,"lon":11.337151,"url":"https://acnpsearch.unibo.it/library/BO015","notes":"La biblioteca è temporanemente chiusa al pubblico, causa emergenza sanitaria, ma alcuni servizi sono comunque erogati con limitazioni. Il DD è attualmente possibile solo sulle collezioni online."},{"type":"biblioteca","name":"Biblioteca del Dipartimento di Storia Culture Civiltà - DiSCi. Sezione di Storia antica","address":"Via Zamboni 38, 40126 Bologna (BO)","city":"Bologna","lat":44.496815,"lon":11.352036,"url":"https://acnpsearch.unibo.it/library/BO215","notes":""},{"type":"biblioteca","name":"Biblioteca delle Arti. Sezione di Arti visive \"I. B. Supino","address":"Piazza G. Morandi, 2, 40125 Bologna (BO)","city":"Bologna","lat":44.488914,"lon":11.354859,"url":"https://acnpsearch.unibo.it/library/BO216","notes":""},{"type":"biblioteca","name":"Biblioteca del Dipartimento di Storia Culture Civiltà - DiSCi. Sezione di Medievistica","address":"Piazza S. Giovanni in Monte, 2, 40124 Bologna (BO)","city":"Bologna","lat":44.49092,"lon":11.348367,"url":"https://acnpsearch.unibo.it/library/BO218","notes":""},{"type":"biblioteca","name":"Biblioteca del Dipartimento di Storia Culture Civiltà - DiSCi. Sezione di Scienze del Moderno","address":"P.zza San Giovanni in Monte, 2, 40124 Bologna (BO)","city":"Bologna","lat":44.49092,"lon":11.348367,"url":"https://acnpsearch.unibo.it/library/BO222","notes":""},{"type":"biblioteca","name":"Biblioteca \"Mario Gattullo\" del Dipartimento di Scienze dell'educazione \"Giovanni Maria Bertin\" - EDU","address":"Via Filippo Re, 6 (ingresso dal retro), 40126 Bologna (BO)","city":"Bologna","lat":44.499527,"lon":11.354617,"url":"https://acnpsearch.unibo.it/library/BO225","notes":""},{"type":"biblioteca","name":"Biblioteca del Dipartimento di Storia Culture Civiltà - DiSCi. Sezione di Scienze del Moderno. Fondo Centro Interdipartimentale di Scienze delle religioni","address":"Piazza San Giovanni in Monte, 4, 40124 Bologna (BO)","city":"Bologna","lat":44.49082,"lon":11.347531,"url":"https://acnpsearch.unibo.it/library/BO230","notes":""},{"type":"biblioteca","name":"Biblioteca di Medicina. Biblioteca Clinica \"F. B. Bianchi\". Sezione Centrale","address":"Via Massarenti 9, 40138 Bologna (BO)","city":"Bologna","lat":44.493,"lon":11.360825,"url":"https://acnpsearch.unibo.it/library/BO301","notes":"Posseduto cartaceo momentaneamente non disponibile per lavori di ristrutturazione"},{"type":"biblioteca","name":"Biblioteca di Medicina. Biblioteca Clinica \"F. B. Bianchi\". Sezione di Chirurgia generale e dei trapianti d'organo \"L. Possati","address":"Via Massarenti, 9, 40138 Bologna (BO)","city":"Bologna","lat":44.493,"lon":11.360825,"url":"https://acnpsearch.unibo.it/library/BO302","notes":"Le riviste con collocazione \"Anestesia\" sono momentaneamente non disponibili"},{"type":"biblioteca","name":"Biblioteca di Medicina. Biblioteca Biomedica","address":"Via Filippo Re, 8, 40126 Bologna (BO)","city":"Bologna","lat":44.499527,"lon":11.354617,"url":"https://acnpsearch.unibo.it/library/BO303","notes":""},{"type":"biblioteca","name":"Biblioteca di Medicina. Biblioteca Clinica \"F. B. Bianchi\". Fondo di Scienze dermatologiche \"L. Martinotti","address":"Via Massarenti, 1, 40138 Bologna (BO)","city":"Bologna","lat":44.493877,"lon":11.357861,"url":"https://acnpsearch.unibo.it/library/BO304","notes":""},{"type":"biblioteca","name":"Biblioteca dell'Alliance Française di Bologna","address":"Via De' Marchi, 4, 40123 Bologna (BO)","city":"Bologna","lat":44.49406,"lon":11.334383,"url":"https://acnpsearch.unibo.it/library/BO018","notes":"La biblioteca è temporaneamente chiusa"},{"type":"biblioteca","name":"Biblioteca di Medicina. Biblioteca Clinica \"F. B. Bianchi\". Sezione di Malattie dell'apparato cardiovascolare","address":"Via Massarenti, 9 - pad.21, 40138 Bologna (BO)","city":"Bologna","lat":44.493,"lon":11.360825,"url":"https://acnpsearch.unibo.it/library/BO305","notes":""},{"type":"biblioteca","name":"Biblioteca di Medicina. Biblioteca Clinica \"F. B. Bianchi\". Sezione di Medicina interna \"Gasbarrini","address":"Via Massarenti 9, 40138 Bologna (BO)","city":"Bologna","lat":44.493,"lon":11.360825,"url":"https://acnpsearch.unibo.it/library/BO308","notes":""},{"type":"biblioteca","name":"Biblioteca di Medicina. Biblioteca Biomedica. Fondo di Neurologia","address":"Via Ugo Foscolo 7, 40123 Bologna (BO)","city":"Bologna","lat":44.49185,"lon":11.330011,"url":"https://acnpsearch.unibo.it/library/BO309","notes":""},{"type":"biblioteca","name":"Biblioteca di Medicina. Sezione di Scienze odontostomatologiche","address":"Via S. Vitale, 59, 40125 Bologna (BO)","city":"Bologna","lat":44.49404,"lon":11.354236,"url":"https://acnpsearch.unibo.it/library/BO311","notes":""},{"type":"biblioteca","name":"Biblioteche IRCCS Istituti Ortopedici Rizzoli","address":"Via Pupilli, 1, 40136 Bologna (BO)","city":"Bologna","lat":44.480698,"lon":11.34268,"url":"https://acnpsearch.unibo.it/library/BO312","notes":""},{"type":"biblioteca","name":"Biblioteca di Medicina. Biblioteca Clinica \"F. B. Bianchi\". Fondo della Clinica otorinolaringologica","address":"Via Massarenti 9, 40138 Bologna (BO)","city":"Bologna","lat":44.493,"lon":11.360825,"url":"https://acnpsearch.unibo.it/library/BO314","notes":""},{"type":"biblioteca","name":"Biblioteca di Medicina. Biblioteca Clinica \"F. B. Bianchi\". Sezione di Scienze ginecologiche, ostetriche e pediatriche","address":"Via Massarenti 11, 40138 Bologna (BO)","city":"Bologna","lat":44.492672,"lon":11.362115,"url":"https://acnpsearch.unibo.it/library/BO315","notes":""},{"type":"biblioteca","name":"Biblioteca di Medicina. Sezione di Psichiatria \"Carlo Gentili","address":"Via Sant'Isaia, 90, 40123 Bologna (BO)","city":"Bologna","lat":44.49427,"lon":11.330475,"url":"https://acnpsearch.unibo.it/library/BO316","notes":""},{"type":"biblioteca","name":"Biblioteca di Medicina. Biblioteca Clinica \"F. B. Bianchi\". Fondo di Anatomia e Istologia patologica","address":"Via Massarenti 9, 40138 Bologna (BO)","city":"Bologna","lat":44.493,"lon":11.360825,"url":"https://acnpsearch.unibo.it/library/BO318","notes":"La biblioteca è chiusa a tempo indeterminato"},{"type":"biblioteca","name":"Biblioteca di Medicina. Biblioteca Biomedica. Sezione di Anatomia umana","address":"Via Irnerio, 48, 40126 Bologna (BO)","city":"Bologna","lat":44.49856,"lon":11.355015,"url":"https://acnpsearch.unibo.it/library/BO319","notes":"Per informazioni e servizi rivolgersi alla Biblioteca Biomedica (BO303): http://www.biblioteche.unibo.it/biomedica"},{"type":"biblioteca","name":"Biblioteca. Associazione Culturale Italia-Russia","address":",  Bologna (BO)","city":"Bologna","lat":44.494446,"lon":11.349231,"url":"https://acnpsearch.unibo.it/library/BO019","notes":""},{"type":"biblioteca","name":"Biblioteca di Medicina. Biblioteca Biomedica. Fondo di Cancerologia","address":"Viale Filopanti, 22, 40126 Bologna (BO)","city":"Bologna","lat":44.494743,"lon":11.357116,"url":"https://acnpsearch.unibo.it/library/BO321","notes":"La biblioteca è diventata fondo librario perciò non eroga servizi"},{"type":"biblioteca","name":"Biblioteca di Medicina. Biblioteca Biomedica. Fondo di Biochimica","address":"Via Irnerio, 48, 40126 Bologna (BO)","city":"Bologna","lat":44.49856,"lon":11.355015,"url":"https://acnpsearch.unibo.it/library/BO322","notes":"Per informazioni e servizi rivolgersi alla Biblioteca Biomedica (BO303): http://www.biblioteche.unibo.it/biomedica"},{"type":"biblioteca","name":"Biblioteca di Medicina. Biblioteca Biomedica. Fondo di Farmacologia","address":"Via Irnerio 48, 40126 Bologna (BO)","city":"Bologna","lat":44.49856,"lon":11.355015,"url":"https://acnpsearch.unibo.it/library/BO323","notes":"Per informazioni e servizi rivolgersi alla Biblioteca Biomedica (BO303): http://www.biblioteche.unibo.it/biomedica"},{"type":"biblioteca","name":"Biblioteca di Medicina. Biblioteca Biomedica. Fondo di Fisiologia umana e generale","address":"P.zza Porta S. Donato, 2, 40127 Bologna (BO)","city":"Bologna","lat":44.49849,"lon":11.356322,"url":"https://acnpsearch.unibo.it/library/BO324","notes":"Per informazioni e servizi rivolgersi alla Biblioteca Biomedica (BO303): http://www.biblioteche.unibo.it/biomedica"},{"type":"biblioteca","name":"Biblioteca di Medicina. Biblioteca Biomedica. Fondo di Igiene","address":"Via S. Giacomo 12, 40126 Bologna (BO)","city":"Bologna","lat":44.49662,"lon":11.355012,"url":"https://acnpsearch.unibo.it/library/BO325","notes":"Per informazioni e servizi rivolgersi alla Biblioteca Biomedica (BO303): http://www.biblioteche.unibo.it/biomedica"},{"type":"biblioteca","name":"Biblioteca di Medicina. Biblioteca Biomedica. Fondo di Istologia, Embriologia e Biologia applicata","address":"Via Belmeloro, 8, 40126 Bologna (BO)","city":"Bologna","lat":44.495495,"lon":11.354152,"url":"https://acnpsearch.unibo.it/library/BO326","notes":"La biblioteca è diventata fondo librario perciò non eroga servizi"},{"type":"biblioteca","name":"Biblioteca di Medicina. Biblioteca Biomedica. Fondo di Medicina legale","address":"Via Irnerio, 49, 40126 Bologna (BO)","city":"Bologna","lat":44.498863,"lon":11.353691,"url":"https://acnpsearch.unibo.it/library/BO327","notes":""},{"type":"biblioteca","name":"Biblioteca di Medicina. Biblioteca Clinica \"F. B. Bianchi\". Fondo di Microbiologia","address":"Via Massarenti 9, 40138 Bologna (BO)","city":"Bologna","lat":44.493,"lon":11.360825,"url":"https://acnpsearch.unibo.it/library/BO328","notes":""},{"type":"biblioteca","name":"Biblioteca di Medicina. Biblioteca Biomedica. Fondo di Microbiologia e Virologia","address":"Via S.Giacomo, 12, 40126 Bologna (BO)","city":"Bologna","lat":44.49662,"lon":11.355012,"url":"https://acnpsearch.unibo.it/library/BO329","notes":"Per informazioni e servizi rivolgersi alla Biblioteca Biomedica (BO303): http://www.biblioteche.unibo.it/biomedica"},{"type":"biblioteca","name":"Biblioteca di Medicina. Biblioteca Clinica \"F. B. Bianchi\". Fondo di Microscopia elettronica e clinica","address":"Via Massarenti 9, 40138 Bologna (BO)","city":"Bologna","lat":44.493,"lon":11.360825,"url":"https://acnpsearch.unibo.it/library/BO330","notes":"La biblioteca è diventata fondo librario perciò non eroga servizi"},{"type":"biblioteca","name":"Biblioteca. Istituto di Cultura Germanica - Goethe-Zentrum","address":"Via de' Marchi 4, 40123 Bologna (BO)","city":"Bologna","lat":44.492714,"lon":11.350324,"url":"https://acnpsearch.unibo.it/library/BO020","notes":""},{"type":"biblioteca","name":"Biblioteca di Medicina. Biblioteca Biomedica. Fondo di Patologia generale","address":"Via S.Giacomo 14, 40126 Bologna (BO)","city":"Bologna","lat":44.49631,"lon":11.356011,"url":"https://acnpsearch.unibo.it/library/BO331","notes":"Per informazioni e servizi rivolgersi alla Biblioteca Biomedica (BO303): http://www.biblioteche.unibo.it/biomedica"},{"type":"biblioteca","name":"Biblioteca \"Silvana Contento\" del Dipartimento di Psicologia - PSI","address":"Via Filippo Re, 10, 40126 Bologna (BO)","city":"Bologna","lat":44.499527,"lon":11.354617,"url":"https://acnpsearch.unibo.it/library/BO333","notes":""},{"type":"biblioteca","name":"Biblioteca di Medicina. Biblioteca Clinica \"F. B. Bianchi\". Sezione di Scienze ginecologiche, ostetriche e pediatriche. Fondo Clinica chirurgica pediatrica","address":"Via Massarenti 11, 40138 Bologna (BO)","city":"Bologna","lat":44.492672,"lon":11.362115,"url":"https://acnpsearch.unibo.it/library/BO337","notes":""},{"type":"biblioteca","name":"Biblioteca di Medicina. Biblioteca Clinica \"F. B. Bianchi\". Fondo di Ematologia \"L. e A. Seragnoli","address":"Via Massarenti, 9, 40138 Bologna (BO)","city":"Bologna","lat":44.493,"lon":11.360825,"url":"https://acnpsearch.unibo.it/library/BO338","notes":""},{"type":"biblioteca","name":"Biblioteca del Dipartimento di Farmacia e Biotecnologie - FaBiT","address":"Via Belmeloro 6, 40126 Bologna (BO)","city":"Bologna","lat":44.49607,"lon":11.353157,"url":"https://acnpsearch.unibo.it/library/BO352","notes":""},{"type":"biblioteca","name":"Biblioteca di Chimica. Sezione \"Giacomo Ciamician","address":"Via Selmi 2, 40126 Bologna (BO)","city":"Bologna","lat":44.496162,"lon":11.354146,"url":"https://acnpsearch.unibo.it/library/BO401","notes":""},{"type":"biblioteca","name":"Biblioteca del Dipartimento di Scienze biologiche, geologiche e ambientali - BiGeA","address":"Via Selmi, 3, 40126 Bologna (BO)","city":"Bologna","lat":44.49565,"lon":11.35388,"url":"https://acnpsearch.unibo.it/library/BO402","notes":"Fino al termine dell'emergenza Coronavirus verranno evase solo le richieste relative a documenti elettronici."},{"type":"biblioteca","name":"Biblioteca di Matematica, Fisica, Astronomia e Informatica. Sezione di Astronomia \"Guido Horn d'Arturo","address":"Via Piero Gobetti 93/2, 40129 Bologna (BO)","city":"Bologna","lat":44.521908,"lon":11.336645,"url":"https://acnpsearch.unibo.it/library/BO404","notes":"La Biblioteca è chiusa per trasloco. Tutti i servizi sono temporaneamente sospesi."},{"type":"biblioteca","name":"Biblioteca di Matematica, Fisica, Astronomia e Informatica. Sezione di Fisica","address":"Via Irnerio 46, 40126 Bologna (BO)","city":"Bologna","lat":44.498848,"lon":11.353884,"url":"https://acnpsearch.unibo.it/library/BO405","notes":"Le riviste con collocazione \"2a Sala\", \"Corridoio ...\", \"Corr.\" e \"Fisica Medica\" sono temporaneamente non disponibili a causa di lavori di riorganizzazione del posseduto"},{"type":"biblioteca","name":"Biblioteca di Matematica, Fisica, Astronomia e Informatica. Sezione di Matematica","address":"P.zza Porta San Donato 5, 40126 Bologna (BO)","city":"Bologna","lat":44.49814,"lon":11.35592,"url":"https://acnpsearch.unibo.it/library/BO411","notes":""},{"type":"biblioteca","name":"Biblioteca Fondazione Gramsci Emilia-Romagna","address":"Via Mentana, 2, 40126 Bologna (BO)","city":"Bologna","lat":44.499508,"lon":11.342567,"url":"https://acnpsearch.unibo.it/library/BO023","notes":""},{"type":"biblioteca","name":"Biblioteca del Dipartimento di Scienze biologiche, geologiche e ambientali - BiGeA. Fondo di Geologia","address":"Via Selmi 3 (vedi nota), 40126 Bologna (BO)","city":"Bologna","lat":44.49637,"lon":11.354374,"url":"https://acnpsearch.unibo.it/library/BO412","notes":"Fino al termine dell'emergenza Coronavirus verranno evase solo le richieste relative a documenti elettronici."},{"type":"biblioteca","name":"Biblioteca di Agraria \"Gabriele Goidanich","address":"Viale G. Fanin, 40, 40127 Bologna (BO)","city":"Bologna","lat":44.51434,"lon":11.405608,"url":"https://acnpsearch.unibo.it/library/BO500","notes":"Il servizio di Document Delivery risulterà rallentato per quanto riguarda l'evasione di richieste su materiale cartaceo da noi posseduto."},{"type":"biblioteca","name":"Biblioteca di Veterinaria \"G.B. Ercolani\". Fondo di Anatomia","address":"Via Tolara di Sopra, 50, 40064 Ozzano dell'Emilia (BO)","city":"Ozzano dell'Emilia","lat":44.418888,"lon":11.475358,"url":"https://acnpsearch.unibo.it/library/BO550","notes":"Collezione momentaneamente inaccessibile in ottemperanza al DPCM 11 marzo 2020 sul Coronavirus"},{"type":"biblioteca","name":"Biblioteca di Veterinaria \"G.B. Ercolani\". Fondo di Igiene e tecnologia alimentare","address":"Via Tolara di Sopra, 50, 40064 Ozzano dell'Emilia (BO)","city":"Ozzano dell'Emilia","lat":44.418888,"lon":11.475358,"url":"https://acnpsearch.unibo.it/library/BO551","notes":"Collezione momentaneamente inaccessibile in ottemperanza al DPCM 11 marzo 2020 sul Coronavirus"},{"type":"biblioteca","name":"Biblioteca di Veterinaria \"G.B. Ercolani\". Fondo di Biochimica","address":"Via Tolara di Sopra, 50, 40064 Ozzano dell'Emilia (BO)","city":"Ozzano dell'Emilia","lat":44.418888,"lon":11.475358,"url":"https://acnpsearch.unibo.it/library/BO552","notes":"Collezione momentaneamente inaccessibile in ottemperanza al DPCM 11 marzo 2020 sul Coronavirus"},{"type":"biblioteca","name":"Biblioteca di Veterinaria \"G.B. Ercolani\". Fondo di Farmacologia veterinaria","address":"Via Tolara di Sopra, 50, 40064 Ozzano dell'Emilia (BO)","city":"Ozzano dell'Emilia","lat":44.418888,"lon":11.475358,"url":"https://acnpsearch.unibo.it/library/BO553","notes":"Collezione momentaneamente inaccessibile in ottemperanza al DPCM 11 marzo 2020 sul Coronavirus"},{"type":"biblioteca","name":"Biblioteca di Veterinaria \"G.B. Ercolani\". Fondo di Fisiologia","address":"Via Tolara di Sopra, 50, 40064 Ozzano dell'Emilia (BO)","city":"Ozzano dell'Emilia","lat":44.418888,"lon":11.475358,"url":"https://acnpsearch.unibo.it/library/BO554","notes":"Collezione momentaneamente inaccessibile in ottemperanza al DPCM 11 marzo 2020 sul Coronavirus"},{"type":"biblioteca","name":"Biblioteca di Veterinaria \"G.B. Ercolani\". Fondo di Malattie infettive","address":"Via Tolara di Sopra, 50, 40064 Ozzano dell'Emilia (BO)","city":"Ozzano dell'Emilia","lat":44.418888,"lon":11.475358,"url":"https://acnpsearch.unibo.it/library/BO555","notes":"Collezione momentaneamente inaccessibile in ottemperanza al DPCM 11 marzo 2020 sul Coronavirus"},{"type":"biblioteca","name":"Biblioteca di Veterinaria \"G.B. Ercolani\". Fondo di Ostetricia veterinaria","address":"Via Tolara di Sopra, 50, 40064 Ozzano dell'Emilia (BO)","city":"Ozzano dell'Emilia","lat":44.418888,"lon":11.475358,"url":"https://acnpsearch.unibo.it/library/BO556","notes":"Collezione momentaneamente inaccessibile in ottemperanza al DPCM 11 marzo 2020 sul Coronavirus"},{"type":"biblioteca","name":"Biblioteca di Veterinaria \"G.B. Ercolani\". Fondo di Patologia aviare","address":"Via Tolara di Sopra, 50, 40064 Ozzano dell'Emilia (BO)","city":"Ozzano dell'Emilia","lat":44.418888,"lon":11.475358,"url":"https://acnpsearch.unibo.it/library/BO557","notes":"Collezione momentaneamente inaccessibile in ottemperanza al DPCM 11 marzo 2020 sul Coronavirus"},{"type":"biblioteca","name":"Biblioteca Centrale \"Roberto Ruffilli\" del Campus di Forlì","address":"via S. Pellegrino Laziosi, 13, 47121 Forlì (FC)","city":"Forlì","lat":44.21968,"lon":12.043144,"url":"https://acnpsearch.unibo.it/library/BO110","notes":""},{"type":"biblioteca","name":"Biblioteca Centrale \"Leon Battista Alberti\" del Campus di Cesena. Sezione di Psicologia","address":"P.zza A. Moro, 90, 47521 Cesena (FC)","city":"Cesena","lat":44.143772,"lon":12.249176,"url":"https://acnpsearch.unibo.it/library/BO232","notes":""},{"type":"biblioteca","name":"Biblioteca Centrale \"Leon Battista Alberti\" del Campus di Cesena. Sezione di Scienze degli Alimenti","address":"Villa Almerici, Piazza Goidanich 60, 47521 Cesena (FC)","city":"Cesena","lat":44.15652,"lon":12.242775,"url":"https://acnpsearch.unibo.it/library/BO520","notes":""},{"type":"biblioteca","name":"Biblioteca Centrale \"Leon Battista Alberti\" del Campus di Cesena. Sezione Centrale","address":"Via dell'Università 50, 47521 Cesena (FC)","city":"Cesena","lat":44.148357,"lon":12.235789,"url":"https://acnpsearch.unibo.it/library/BO661","notes":""},{"type":"biblioteca","name":"Biblioteca Centrale \"Leon Battista Alberti\" del Campus di Cesena. Sezione di Acquacoltura e Igiene delle produzioni ittiche","address":"Viale Magrini, 31, 47042 Cesenatico (FC)","city":"Cesenatico","lat":44.20405,"lon":12.396359,"url":"https://acnpsearch.unibo.it/library/BO662","notes":""},{"type":"biblioteca","name":"Biblioteca generale della Camera di Commercio di Forlì-Cesena","address":"Corso della Repubblica,5, 47121 Forlì (FC)","city":"Forlì","lat":44.22189,"lon":12.041188,"url":"https://acnpsearch.unibo.it/library/FC002","notes":""},{"type":"biblioteca","name":"Istituto Scientifico Romagnolo per lo Studio e la Cura dei Tumori (IRST) S.r.l., IRCCS","address":"Via Piero Maroncelli, 40, 47014 Meldola (FC)","city":"Meldola","lat":44.12528,"lon":12.063241,"url":"https://acnpsearch.unibo.it/library/FC003","notes":""},{"type":"biblioteca","name":"Biblioteca CREA Centro di ricerca Olivicoltura, Frutticoltura e Agrumicoltura","address":"Via La Canapona 1 bis, 47121 Forlì (FC)","city":"Forlì","lat":44.166077,"lon":12.076198,"url":"https://acnpsearch.unibo.it/library/FC004","notes":""},{"type":"biblioteca","name":"Biblioteca Malatestiana","address":",  Cesena (FC)","city":"Cesena","lat":44.13876,"lon":12.239124,"url":"https://acnpsearch.unibo.it/library/FC005","notes":""},{"type":"biblioteca","name":"Biblioteca Tecnico Scientifica AUSL Romagna Ravenna","address":",  Cesena (FC)","city":"Cesena","lat":44.13876,"lon":12.239124,"url":"https://acnpsearch.unibo.it/library/FC006","notes":""},{"type":"biblioteca","name":"Biblioteca del Dipartimento di Storia Culture Civiltà - DiSCi. Sezione di Archeologia. Sede di Ravenna","address":"via San Vitale 30, 48121 Ravenna (RA)","city":"Ravenna","lat":44.419758,"lon":12.19682,"url":"https://acnpsearch.unibo.it/library/BO203","notes":""},{"type":"biblioteca","name":"Biblioteca Centrale del Campus di Ravenna. Sezione Centrale di Palazzo Corradini","address":"Via Mariani 5, 48121 Ravenna (RA)","city":"Ravenna","lat":44.41726,"lon":12.201928,"url":"https://acnpsearch.unibo.it/library/BO231","notes":"Document Delivery: il servizio è attivo esclusivamente per le risorse online. Possono fare richiesta di DD solo gli utenti che abbiano a disposizione un fax a cui poter inviare i documenti."},{"type":"biblioteca","name":"Biblioteca Centrale del Campus di Ravenna. Sezione di Scienze ambientali","address":"Via Sant'Alberto, 163, 48123 Ravenna (RA)","city":"Ravenna","lat":44.434284,"lon":12.196099,"url":"https://acnpsearch.unibo.it/library/BO414","notes":"Document Delivery: il servizio è attivo esclusivamente per le risorse online. Possono fare richiesta di DD solo gli utenti che abbiano a disposizione un fax a cui poter inviare i documenti"},{"type":"biblioteca","name":"Biblioteca Centrale del Campus di Ravenna. Sezione di Scienze ambientali. Sede di Faenza","address":"Via Granarolo, 62, 48018 Faenza (RA)","city":"Faenza","lat":44.30876,"lon":11.895497,"url":"https://acnpsearch.unibo.it/library/BO667","notes":""},{"type":"biblioteca","name":"Biblioteca Libertaria Armando Borghi","address":"Via Emilia Interna 93/95, 48014 Castel Bolognese (RA)","city":"Castel Bolognese","lat":44.319965,"lon":11.798766,"url":"https://acnpsearch.unibo.it/library/RA002","notes":""},{"type":"biblioteca","name":"Biblioteca Scientifica Maria Cecilia Hospital","address":"Via Corriera, 1, 48033 Cotignola (RA)","city":"Cotignola","lat":44.37904,"lon":11.883712,"url":"https://acnpsearch.unibo.it/library/RA003","notes":""},{"type":"biblioteca","name":"Biblioteca Centrale del Campus di Rimini","address":"Via Vittime Civili di guerra, 5, 47921 Rimini (RN)","city":"Rimini","lat":44.063618,"lon":12.568992,"url":"https://acnpsearch.unibo.it/library/BO125","notes":""},{"type":"biblioteca","name":"Biblioteca Civica Gambalunga di Rimini","address":"Via Gambalunga, 27, 47921 Rimini (RN)","city":"Rimini","lat":44.061653,"lon":12.567836,"url":"https://acnpsearch.unibo.it/library/RN002","notes":""},{"type":"biblioteca","name":"Biblioteca Comunale","address":",  Cattolica (RN)","city":"Cattolica","lat":43.963318,"lon":12.738432,"url":"https://acnpsearch.unibo.it/library/RN003","notes":""},{"type":"biblioteca","name":"Biblioteca Diocesana \"Mons. Emilio Biancheri","address":"via Covignano, 265, 47923 Rimini (RN)","city":"Rimini","lat":44.03109,"lon":12.544571,"url":"https://acnpsearch.unibo.it/library/RN004","notes":""},{"type":"unibo","name":"APOS - Area del Personale; \nAPOS - Settore Affari giuridici; \nAPOS - Settore Affari giuridici - Ufficio Affari generali per il personale tecnico amministrativo e CEL; \nAPOS - Settore Affari giuridici - Ufficio Gestione buoni pasto; \nAPOS - Settore Affari giuridici - Ufficio Gestione orario di lavoro; \nAPOS - Settore Affari giuridici - Ufficio Stato giuridico del personale; \nAPOS - Settore Inserimento e sviluppo professionale; \nAPOS - Settore Inserimento e sviluppo professionale - Ufficio Assunzioni e gestione tipologie contrattuali; \nAPOS - Settore Inserimento e sviluppo professionale - Ufficio Inclusione e tutela lavorativa; \nAPOS - Settore Inserimento e sviluppo professionale - Ufficio Orientamento professionale e mobilità; \nAPOS - Settore Selezione e contratti; \nAPOS - Settore Selezione e contratti - Ufficio Didattica e contratti d'insegnamento; \nAPOS - Settore Selezione e contratti - Ufficio Reclutamento, contratti di lavoro flessibile e assegni di ricerca; \nAPOS - Settore Selezione e contratti - Ufficio Ricercatori a tempo determinato; \nAPOS - Settore Servizi Previdenziali; \nAPOS - Settore Sistemi informativi e documentali del personale; \nAPOS - Settore Stato Giuridico Docenti; \nAPOS - Settore Stato Giuridico Docenti - Ufficio Affari Generali; \nAPOS - Settore Stato Giuridico Docenti - Ufficio Carriere; \nAPOS - Settore Stato Giuridico Docenti - Ufficio Concorsi Docenti; \nAPOS - Ufficio per i procedimenti disciplinari; \nAPOS - Ufficio Staff di Area; \nAPOS - Unità di processo Performance organizzativa e programmazione del personale","address":"Piazza Verdi 3 - 40126 Bologna","city":"Bologna","lat":44.49618,"lon":11.350586,"url":"","notes":""},{"type":"unibo","name":"Dipartimento di Beni Culturali","address":"Via Ariani 1 Angolo via Diaz - 48100 Ravenna","city":"Ravenna","lat":44.418224,"lon":12.202186,"url":"","notes":""},{"type":"unibo","name":"Dipartimento di Scienze e Tecnologie Agro-Alimentari","address":"Via F.lli Rosselli 107-Coviolo - 42100 Reggio nell'Emilia","city":"Reggio nell'Emilia","lat":0,"lon":0,"url":"","notes":""},{"type":"unibo","name":"BiGeA - Dipartimento di Scienze Biologiche, Geologiche e Ambientali","address":"Piazza di Porta S.Donato 1 - 40127 Bologna","city":"Bologna","lat":44.498417,"lon":11.356781,"url":"","notes":""},{"type":"unibo","name":"ACRR - Settore Personale e affari generali - Ufficio Affari generali e personale RavennaUfficio Affari generali e personale Ravenna; \nACRR - Settore Servizi contabili e amministrativi Ravenna - Ufficio Budget e approvvigionamenti Ravenna; \nACRR - Settore Servizi contabili e amministrativi Ravenna - Ufficio Contratti, missioni e compensi, patrimonio Ravenna; \nACRR - Settore Servizi didattici campus Ravenna; \nACRR - Unità di processo Ricerca Ravenna","address":"Via degli Ariani 1 - 48121 Ravenna","city":"Ravenna","lat":44.41833,"lon":12.202204,"url":"","notes":""},{"type":"unibo","name":"Azienda Agraria - A.U.B.","address":"Via Tolara di Sopra 73 - 40064 Ozzano dell'Emilia","city":"Ozzano dell'Emilia","lat":44.41845,"lon":11.475372,"url":"","notes":""},{"type":"unibo","name":"Centro Interdipartimentale di Ricerca Industriale FRAME-Fonti Rinnovabili, Ambiente, Mare ed Energia; \nCentro Interdipartimentale di Ricerca Industriale FRAME-Fonti Rinnovabili, Ambiente, Mare ed Energia","address":"Via Sant'Alberto 163 - 48123 Ravenna","city":"Ravenna","lat":44.434593,"lon":12.196103,"url":"","notes":""},{"type":"unibo","name":"Dipartimento di Farmacia e Biotecnologie; \nDipartimento di Medicina Specialistica, Diagnostica e Sperimentale; \nDipartimento di Scienze Biologiche, Geologiche e Ambientali; \nDipartimento di Scienze Biomediche e Neuromotorie; \nDipartimento di Scienze Dell'Educazione \"Giovanni Maria Bertin\"; \nDipartimento di Scienze Mediche e Chirurgiche","address":"Via S.Giacomo 12 - 40126 Bologna","city":"Bologna","lat":44.496708,"lon":11.355305,"url":"","notes":""},{"type":"unibo","name":"CRIFSP - Centro di Ricerca e Formazione sul Settore Pubblico - (CRIFSP); \nCRIFSP - Servizio Gestione risorse finanziarie e servizi per la didattica; \nCRIFSP - Ufficio Gestione risorse finanziarie per la didattica e ricerca; \nCRIFSP - Ufficio Gestione servizi per la didattica e gli studenti","address":"Via Belmeloro 10 - 40126 Bologna","city":"Bologna","lat":44.495396,"lon":11.354804,"url":"","notes":""},{"type":"unibo","name":"ABIS - Settore Biblioteca di Medicina; \nABIS - Ufficio Supporto amministrativo contabile per le biblioteche","address":"Via Filippo Re 8 - 40126 Bologna","city":"Bologna","lat":44.499527,"lon":11.354617,"url":"","notes":""},{"type":"unibo","name":"Dipartimento di Farmacia e Biotecnologie; \nDipartimento di Scienze Biomediche e Neuromotorie; \nDipartimento di Scienze Mediche e Chirurgiche","address":"Via Irnerio 48 - 40126 Bologna","city":"Bologna","lat":44.499123,"lon":11.355014,"url":"","notes":""},{"type":"unibo","name":"ABIS - Unità di processo Gestione e sviluppo del catalogo italiano dei periodici - ACNP","address":"Viale Filopanti 7 - 40127 Bologna","city":"Bologna","lat":44.49544,"lon":11.3566265,"url":"","notes":""},{"type":"unibo","name":"AFORM - Ufficio per la Didattica e gli studenti - sede di Imola","address":"Piazzale Giovanni delle Bande Nere 11 - 40126 Imola","city":"Imola","lat":0,"lon":0,"url":"","notes":""},{"type":"unibo","name":"Dipartimento di Scienze Mediche e Chirurgiche","address":"Via Irnerio 49 - 40126 Bologna","city":"Bologna","lat":44.498913,"lon":11.353798,"url":"","notes":""},{"type":"unibo","name":"ACCF - Settore Servizi bibliotecari Cesena e Forlì","address":"Via S. Pellegrino Laziosi 13 - 47121 Forlì","city":"Forlì","lat":44.21956,"lon":12.043587,"url":"","notes":""},{"type":"unibo","name":"DEI - Ufficio Affari generali; \nDEI - Unità di laboratorio LAB1","address":"Viale Risorgimento 2 - 40134 Bologna","city":"Bologna","lat":44.48811,"lon":11.328421,"url":"","notes":""},{"type":"unibo","name":"ASB - Settore Distretto San Giacomo - Ufficio Accessibilità e utilizzo spazi","address":"Viale Filopanti 5 - 40126 Bologna","city":"Bologna","lat":44.49563,"lon":11.356519,"url":"","notes":""},{"type":"unibo","name":"DIBINEM - Dipartimento di Scienze Biomediche e Neuromotorie; \nDIBINEM - Servizi tecnici di laboratorio Area 1","address":"Via Massarenti 9 - 40138 Bologna","city":"Bologna","lat":44.493015,"lon":11.360833,"url":"http://www.dibinem.unibo.it/","notes":""},{"type":"unibo","name":"ABIS - Settore Diritto allo studio - Ufficio Servizi per gli studenti con disabilità e con DSA","address":"Via Giacomo della Torre 1 - 47121 Forlì","city":"Forlì","lat":44.21891,"lon":12.04211,"url":"","notes":""},{"type":"unibo","name":"DBC - Unità di laboratorio Polilaboratoriale","address":"Via Ariani 1 Angolo via Diaz - 48100 Ravenna","city":"Ravenna","lat":44.418224,"lon":12.202186,"url":"","notes":""},{"type":"unibo","name":"Dipartimento di Scienze Biomediche e Neuromotorie","address":"Via San Vitale 59 - 40125 Bologna","city":"Bologna","lat":44.494057,"lon":11.353957,"url":"","notes":""},{"type":"unibo","name":"Dipartimento di Scienze e Tecnologie Agro-Alimentari","address":"Viale Fanin 42 - 40127 Bologna","city":"Bologna","lat":44.51395,"lon":11.405368,"url":"","notes":""},{"type":"unibo","name":"FABIT - Servizi Ammnistrativi; \nFABIT - Servizi tecnici di laboratorio; \nFABIT - Unità di laboratorio di Chimica e biologia","address":"Via Selmi 3 - 40126 Bologna","city":"Bologna","lat":44.49615,"lon":11.354264,"url":"","notes":""},{"type":"unibo","name":"Centro Interdipartimentale di Ricerca Industriale FRAME-Fonti Rinnovabili, Ambiente, Mare ed Energia","address":"Via Dario Campana 71 - 47922 Rimini","city":"Rimini","lat":44.05916,"lon":12.554108,"url":"","notes":""},{"type":"unibo","name":"PSI - Servizi amministrativi","address":"Piazza Aldo Moro 90 - 47521 Cesena","city":"Cesena","lat":44.14435,"lon":12.248233,"url":"","notes":""},{"type":"unibo","name":"ACRR - Settore Servizi didattici campus Ravenna; \nACRR - Ufficio Orientamento tirocini e relazioni internazionali Ravenna","address":"Via Guaccimanni 42 - 48121 Ravenna","city":"Ravenna","lat":44.41573,"lon":12.202605,"url":"","notes":""},{"type":"unibo","name":"Dipartimento di Scienze Economiche; \nDipartimento di Scienze Giuridiche; \nDipartimento di Sociologia e Diritto dell'Economia","address":"Strada Maggiore 45 - 40125 Bologna","city":"Bologna","lat":44.49134,"lon":11.353965,"url":"","notes":""},{"type":"unibo","name":"FABIT - Servizi Amministrativi; \nFABIT - Ufficio Acquisti; \nFABIT - Ufficio Affari generali e supporto alla ricerca; \nFABIT - Unità di laboratorio di Chimica e biologia","address":"Via San Donato 15 - 40127 Bologna","city":"Bologna","lat":44.502495,"lon":11.362273,"url":"","notes":""},{"type":"unibo","name":"ASB - Settore Distretto Poggi - Ufficio Accessibilità e utilizzo spazi","address":"Via Zamboni 27-29 - 40126 Bologna","city":"Bologna","lat":44.49576,"lon":11.349368,"url":"","notes":""},{"type":"unibo","name":"Dipartimento di Scienze Giuridiche","address":"Via Galliera 3 - 40121 Bologna","city":"Bologna","lat":44.49723,"lon":11.341768,"url":"","notes":""},{"type":"unibo","name":"Dipartimento di Scienze Politiche e Sociali","address":"Via dei Bersagleri 6 - 40125 Bologna","city":"Bologna","lat":44.49032,"lon":11.352783,"url":"","notes":""},{"type":"unibo","name":"ABIS - Ufficio Supporto amministrativo contabile per le biblioteche","address":"Via delle Belle Arti 33 - 40126 Bologna","city":"Bologna","lat":44.497723,"lon":11.35182,"url":"","notes":""},{"type":"unibo","name":"ACRR - Settore Servizi agli studenti Rimini; \nACRR - Settore Servizi agli studenti Rimini - Ufficio Orientamento, tirocini e relazioni con il pubblico - URP Rimini; \nACRR - Settore Servizi agli studenti Rimini - Ufficio Relazioni internazionali Rimini; \nACRR - SETTORE SERVIZI AGLI STUDENTI RIMINI - UFFICIO SEGRETERIA STUDENTI RIMINI","address":"Via Cattaneo 17 - 47921 Rimini","city":"Rimini","lat":44.061455,"lon":12.569918,"url":"","notes":""},{"type":"unibo","name":"AUTC - Settore Coordinamento attività edilizie - Ufficio Pianificazione e adeguamenti normativi","address":"Piazzale Solieri 1 - 47127 Forlì","city":"Forlì","lat":44.21912,"lon":12.042588,"url":"","notes":""},{"type":"unibo","name":"Biblioteca Universitaria di Bologna - BUB; \nBUB - Servizi Bibliografici documentali e gestione archivio storico d'Ateneo","address":"Via Zamboni 33-35 - 40126 Bologna","city":"Bologna","lat":44.49688,"lon":11.352409,"url":"","notes":""},{"type":"unibo","name":"Area Service Area Medica; \nDimes - Unità di laboratori biomedici di Patologia Sperimentale","address":"Via San Giacomo 12 - 40126 Bologna","city":"Bologna","lat":44.49661,"lon":11.355004,"url":"","notes":""},{"type":"unibo","name":"DBC - Dipartimento di Beni Culturali","address":"Via degli Ariani 1 - 48100 Ravenna","city":"Ravenna","lat":44.41856,"lon":12.202124,"url":"http://www.beniculturali.unibo.it/","notes":""},{"type":"unibo","name":"Dipartimento di Interpretazione e Traduzione","address":"C.so Repubblica 136 - 47100 Forlì","city":"Forlì","lat":44.219284,"lon":12.047165,"url":"","notes":""},{"type":"unibo","name":"DIFA - Dipartimento di Fisica e Astronomia; \nDIFA - Servizi amministrativi; \nDIFA - Servizi tecnici dei laboratori specialistici; \nDIFA - Unità di laboratorio Ricerca","address":"Viale Berti Pichat 6/2 - 40127 Bologna","city":"Bologna","lat":44.50058,"lon":11.3565445,"url":"http://www.fisica-astronomia.unibo.it/","notes":""},{"type":"unibo","name":"AFORM - Settore Progettazione didattica - Ufficio Regolamenti didattici","address":"Via Bertoloni 4 - 40126 Bologna","city":"Bologna","lat":44.498604,"lon":11.352211,"url":"","notes":""},{"type":"unibo","name":"Biblioteca Universitaria di Bologna - BUB","address":"Via Irnerio 49 - 40126 Bologna","city":"Bologna","lat":44.498913,"lon":11.353798,"url":"","notes":""},{"type":"unibo","name":"Dipartimento di Storia Culture Civiltà","address":"Piazza S.Giovanni in Monte 4 - 40124 Bologna","city":"Bologna","lat":44.4908,"lon":11.347882,"url":"","notes":""},{"type":"unibo","name":"Centro di Studi Avanzati sul Turismo/Center for Advanced Studies in Tourism (CAST)","address":"Via Anghera 22 - 47900 Rimini","city":"Rimini","lat":44.061974,"lon":12.570052,"url":"","notes":""},{"type":"unibo","name":"AFORM - Settore Servizi didattici \"Area Sociale\" - Ufficio Servizi trasversali per l'offerta formativa","address":"Via Zamboni 22 - 40126 Bologna","city":"Bologna","lat":44.49558,"lon":11.3488655,"url":"","notes":""},{"type":"unibo","name":"ASB - Settore Distretto Filippo Re - Ufficio Accessibilità e utilizzo spazi","address":"Via Ranzani 1 - 40127 Bologna","city":"Bologna","lat":44.49971,"lon":11.35921,"url":"","notes":""},{"type":"unibo","name":"Centro Interdipartimentale di Ricerca per le Scienze Ambientali - CIRSA","address":"Via Sant'Alberto 163 - 48123 Ravenna","city":"Ravenna","lat":44.434593,"lon":12.196103,"url":"","notes":""},{"type":"unibo","name":"Azienda Agraria - A.U.B.","address":"Viale Fanin 50 - 40127 Bologna","city":"Bologna","lat":44.51395,"lon":11.405368,"url":"","notes":""},{"type":"unibo","name":"DEI - Servizi amministrativi","address":"Viale Risorgimento 2 - 40121 Bologna","city":"Bologna","lat":44.48811,"lon":11.328421,"url":"","notes":""},{"type":"unibo","name":"Dipartimento di Ingegneria Industriale","address":"Via dei Colli 16 - 40136 Bologna","city":"Bologna","lat":44.46253,"lon":11.326304,"url":"","notes":""},{"type":"unibo","name":"Area del Patrimonio","address":"Largo Trombetti 3 - 40126 Bologna","city":"Bologna","lat":44.49585,"lon":11.352599,"url":"","notes":""},{"type":"unibo","name":"Dipartimento di Ingegneria Industriale","address":"Via Fontanelle 40 - 47100 Forlì","city":"Forlì","lat":44.200027,"lon":12.0641575,"url":"","notes":""},{"type":"unibo","name":"AUTC - Settore Attività tecniche; \nAUTC - Settore Contratti e acquisti; \nAUTC - Settore Coordinamento attività edilizie - Ufficio Gestione edifici","address":"Piazzale Solieri 1 - 47121 Forlì","city":"Forlì","lat":44.21926,"lon":12.042434,"url":"","notes":""},{"type":"unibo","name":"DiSCi - Servizi Bibliotecari","address":"Via Zamboni 33 - 40125 Bologna","city":"Bologna","lat":44.49688,"lon":11.352409,"url":"","notes":""},{"type":"unibo","name":"ACRR - Settore Servizi didattici campus Rimini - Ufficio Scienze qualità della vita","address":"Via dei Mille 39 - 47921 Rimini","city":"Rimini","lat":44.06504,"lon":12.568034,"url":"","notes":""},{"type":"unibo","name":"ACRR - Settore Logistica per le strutture di Campus","address":"Piazza Aldo Moro 90 - 47521 Cesena","city":"Cesena","lat":44.14435,"lon":12.248233,"url":"","notes":""},{"type":"unibo","name":"AAGG - Ufficio Gestione servizi di postalizzazione","address":"Via Acri 9/D - 40126 Bologna","city":"Bologna","lat":44.49516,"lon":11.352618,"url":"","notes":""},